zip,city,state,name,price,rating,review_count,type,latitude,longitude,Min_Dist,Min_Name,Date_Issued
60601,Chicago,IL,Wildberry Pancakes and Cafe,$$,4.5,5862,American (New),41.884668,-87.62288000000001,22.616865114664545,STARBUCKS COFFEE #10957,04/05/2017
60603,Chicago,IL,The Gage,$$,4.0,2632,American (New),41.8810478466356,-87.62453288378859,36.03821170642655,UNIVERSITY CLUB OF CHICAGO,03/02/2012
60603,Chicago,IL,Cindy's,$$,4.0,1387,American (New),41.8816894031196,-87.6250061730162,33.577984309877856,Gloria Jeans Coffee,08/26/2014
60603,Chicago,IL,The Marq,$$,4.0,509,American (New),41.8796191,-87.6299253,12.41688124910465,J V ENTERPRISES INC,04/16/2010
60603,Chicago,IL,Cherry Circle Room,$$$,4.5,330,American (New),41.881664276123,-87.62496948242192,36.379056990329765,CHICAGO SUB INC,04/17/2007
60603,Chicago,IL,The Berghoff Restaurant,$$,3.5,962,American (New),41.8793326,-87.6286679,21.276030923646445,BERGHOFF'S,03/01/2016
60604,Chicago,IL,Native Foods Cafe,$$,4.0,729,American (New),41.87887,-87.63117,18.09859310320191,THAT SOUP PLACE,05/26/2004
60605,Chicago,IL,The Bongo Room,$$,4.0,1452,American (New),41.8677,-87.62647,28.15438939701011,STAN'S DONUTS & COFFEE,12/05/2017
60607,Chicago,IL,Girl & the Goat,$$$,4.5,7886,American (New),41.884104999293896,-87.6479440725005,22.328920596394592,GIRL & THE GOAT,06/15/2018
60607,Chicago,IL,The Publican,$$$,4.0,3031,American (New),41.886644,-87.648765,11.969668683050111,THE PUBLICAN,05/07/2018
60607,Chicago,IL,Next,$$$$,4.0,640,American (New),41.886641182708004,-87.6519030656,2.980313010357682,Follia,05/10/2005
60607,Chicago,IL,The Allis,$$,4.0,636,American (New),41.88374,-87.64828,23.931201427131835,SOHO HOUSE CHICAGO,07/23/2014
60607,Chicago,IL,Roister,$$$$,4.0,493,American (New),41.886524,-87.65186609999999,12.300012137895708,ING RESTAURANT,05/12/2008
60607,Chicago,IL,MAD Social,$$,4.0,383,American (New),41.88187,-87.65598,13.965418261517701,MAD,01/24/2018
60608,Chicago,IL,Dusek's Board & Beer,$$,4.0,857,American (New),41.857871,-87.65739,5.276383089373807,DUSEK'S BOARD AND BEER / PUNCH HOUSE,08/30/2017
60608,Chicago,IL,EL Ideas,$$$$,4.5,302,American (New),41.86275,-87.68700000000001,33.28440602287346,AMAZING EDIBLES / AMAZING SPIRITS,11/04/2013
60608,Chicago,IL,S.K.Y.,$$$,4.5,235,American (New),41.8577851,-87.65787490000001,8.017694132229472,S.K.Y.,02/13/2018
60608,Chicago,IL,The Duck Inn,$$$,4.0,398,American (New),41.8444817593219,-87.6601841065537,7.863623381730236,GEM-BAR LOUNGE,02/10/2006
60608,Chicago,IL,Monnie Burke's,$$,4.5,197,American (New),41.85759,-87.65562,29.953136739606805,PEREZ RESTAURANT,04/13/2012
60608,Chicago,IL,Nana,$$,4.0,1046,American (New),41.834550484255,-87.64604137072979,14.292916551150842,NANA,12/14/2017
60608,Chicago,IL,Azul 18,$$,4.0,248,American (New),41.8580549,-87.65786750000001,2.284035319299559,AZUL 18TH RESTAURANT,06/14/2018
60610,Chicago,IL,Velvet Taco,$$,4.0,1230,American (New),41.9022,-87.62858,7.006736300055805,MELVIN B'S RESTAURANT INC.,01/23/2006
60610,Chicago,IL,3rd Coast Cafe,$$,4.0,556,American (New),41.90565,-87.63046999999999,23.750789933785466,SEATTLE SUTTON'S HEALTHY EATING - GOLD COAST,07/23/2012
60611,Chicago,IL,Beatrix Streeterville,$$,4.5,702,American (New),41.8944242,-87.622564,49.415858966402006,SOPRAFFINA/CICCHETTI,11/08/2013
60611,Chicago,IL,Doc B's Restaurant + Bar,$$,4.5,692,American (New),41.900246,-87.625163,23.253236271241036,4 TASTE OFF RUSH,05/15/2006
60611,Chicago,IL,Bandera Restaurant,$$,4.0,1705,American (New),41.8919021875965,-87.62361845773458,33.02123112071339,BANDERA,03/07/2017
60611,Chicago,IL,The Signature Room at the 95th,$$$,3.5,1758,American (New),41.898740025562894,-87.62282485522542,43.29789219093838,HANCOCK MARKET LTD,05/11/2006
60611,Chicago,IL,RL Restaurant,$$$,4.0,691,American (New),41.897007,-87.624961,44.48026858450626,AMERICAN GIRL PLACE INC,05/09/2005
60611,Chicago,IL,Pinstripes,$$,4.0,483,American (New),41.890847535046504,-87.6161211240793,22.935089675836196,DICK'S LAST RESORT OF CHGO INC,05/11/2007
60611,Chicago,IL,Copper Fox Gastropub,$$,4.0,542,American (New),41.8932151,-87.6233697,27.158303351278125,O'NEIL'S BAR & GRILL,05/16/2003
60611,Chicago,IL,NoMI Kitchen,$$$$,4.0,698,American (New),41.8969705807961,-87.62518286705021,47.436376569745484,AMERICAN GIRL PLACE INC,05/09/2005
60613,Chicago,IL,PR Italian Bistro,$$,4.0,648,American (New),41.953,-87.65477,10.485402378676799,BELANY RESTAURANT,08/13/2002
60613,Chicago,IL,Southport & Irving SIP,$$,4.0,515,American (New),41.95452,-87.6644318,5.581591712913037,DELEECE,09/15/2006
60613,Chicago,IL,The Reservoir,$$,4.0,325,American (New),41.96209890147829,-87.65170454978941,19.17761614198282,RESERVOIR,07/13/2018
60613,Chicago,IL,Uncommon Ground,$$,3.5,1017,American (New),41.95125,-87.66006999999999,17.822525480883765,EAST LAKEVIEW FOOD & LIQUOR,06/14/2018
60613,Chicago,IL,Kit Kat Lounge & Supper Club,$$,3.5,624,American (New),41.949263828004,-87.6497471053475,9.26402191637793,SALSITA,07/19/2018
60614,Chicago,IL,Alinea,$$$$,4.5,1941,American (New),41.9134194160823,-87.6482384681229,7.637273501883392,ALINEA RESTAURANT LLC,04/26/2006
60614,Chicago,IL,Del Seoul,$,4.5,1929,American (New),41.929444000000004,-87.643016,7.569622723347946,COUTURE CREPE CAFE,04/14/2009
60614,Chicago,IL,Boka,$$$,4.5,1260,American (New),41.9135158,-87.64808590000001,10.596950709939826,ALINEA RESTAURANT LLC,04/26/2006
60614,Chicago,IL,North Pond,$$$$,4.0,518,American (New),41.92931,-87.636616,68.39196879157522,NORTH POND CAFE,04/12/2017
60614,Chicago,IL,Gemini,$$$,4.0,455,American (New),41.9200319,-87.640967,5.192570051551354,BRAUN DRUGS INC,04/14/2005
60615,Chicago,IL,Native Foods Cafe,$$,3.5,228,American (New),41.800402000000005,-87.58823000000001,11.141877087786966,NATIVE FOODS CAFE,06/02/2016
60616,Chicago,IL,Acadia,$$$$,4.0,434,American (New),41.859047,-87.62524300000001,22.556476315130766,ACADIA RESTAURANT,12/15/2017
60617,Chicago,IL,Wingz It Iz,$$,4.0,17,American (New),41.729240417480504,-87.5858688354492,19.840644385840385,BLOCKBUSTER VIDEO #17044,04/06/2009
60617,Chicago,IL,Family Den,$,4.0,13,American (New),41.731724799999995,-87.58565490000001,36.13809207775309,FAMILY DEN,09/12/2018
60617,Chicago,IL,C & G Restaurant,$,3.0,7,American (New),41.728105799999994,-87.5509279,11.478204803249627,C & G RESTAURANT,01/13/2017
60617,Chicago,IL,Thomas Restaurant,$,3.0,15,American (New),41.73668,-87.58294000000001,18.03146017337776,THOMAS COFFEE SHOP,10/12/2018
60618,Chicago,IL,Honey Butter Fried Chicken,$$,4.0,1673,American (New),41.9426302817062,-87.7027218416333,10.460064758579657,HONEY BUTTER FRIED CHICKEN,08/14/2017
60618,Chicago,IL,Little Bucharest Bistro,$$,4.5,575,American (New),41.947990000000004,-87.7105,7.391346478159523,LITTLE BUCHAREST BISTRO,06/14/2018
60618,Chicago,IL,Parachute,$$$,4.0,566,American (New),41.944707,-87.706518,17.41826429038036,Dos Sabores,03/26/2012
60618,Chicago,IL,Volo Restaurant Wine Bar,$$,3.5,439,American (New),41.9433228,-87.6788849,2.968985680170703,VOLO RESTAURANT,12/09/2016
60619,Chicago,IL,Sizzlin Skillets,$$,3.0,27,American (New),41.7374151590601,-87.6045724377036,10.411767905422522,DRAGON -I- KITCHEN,09/30/2005
60619,Chicago,IL,Red Snapper Fish & Chicken,$$,2.5,7,American (New),41.7366867,-87.5910187,11.49831373498402,HAPPY'S PIZZA CHICAGO #1,09/23/2009
60619,Chicago,IL,Sunny Sub,$,4.0,4,American (New),41.7659301757812,-87.61557006835942,14.689980128796414,ONE-STOP VARIETY SHOP,02/07/2005
60619,Chicago,IL,Captain Hooks Fish & Chicken,$$,2.5,3,American (New),41.736176,-87.618996,321.4601915440952,FAMILY DOLLAR STORE #6642,11/06/2017
60620,Chicago,IL,Sky Chop Suey,$$,3.5,3,American (New),41.735553700000004,-87.6706543,2.9585075109185275,WINCHESTER MINI MART,11/19/2014
60621,Chicago,IL,Sikia,$$,4.5,11,American (New),41.780075,-87.64407,44.750072709795255,"ALTER EGO RESTAURANTS, LLC",01/08/2009
60622,Chicago,IL,The Violet Hour,$$,4.0,2090,American (New),41.909095,-87.677829,29.007947236768786,LOU MALNATIS PIZZERIA,11/04/2016
60622,Chicago,IL,The Bongo Room,$$,4.0,1507,American (New),41.908409999999996,-87.67492,16.22863459963471,THE BONGO ROOM,11/10/2016
60622,Chicago,IL,Oiistar,$$,4.0,874,American (New),41.9070880100627,-87.6720839738846,2.1620061057706326,OIISTAR,08/31/2018
60622,Chicago,IL,Forbidden Root,$$,4.5,376,American (New),41.8962684049794,-87.67138141178529,17.86826032870099,FORBIDDEN ROOT,02/16/2018
60622,Chicago,IL,Umami Burger - Wicker Park,$$,4.0,810,American (New),41.908589899999996,-87.6752,19.77769482350268,UMAMI BURGER,09/07/2016
60622,Chicago,IL,Native Foods Cafe,$$,4.0,578,American (New),41.90866,-87.67531,16.328664739160587,UMAMI BURGER,09/07/2016
60622,Chicago,IL,Schwa,$$$$,4.0,507,American (New),41.90892,-87.66793,11.503278540297774,LOVITT LLC,11/12/2004
60622,Chicago,IL,Fatpour Tap Works,$$,4.0,531,American (New),41.90289,-87.67761999999999,22.10765533507646,ADOBO GRILL,12/17/2007
60622,Chicago,IL,The Fifty/50,$$,3.5,639,American (New),41.90301427628,-87.67880225119991,26.559662816580026,THE FIFTY / 50,11/23/2016
60624,Chicago,IL,Inspiration Kitchens,$$,4.5,204,American (New),41.885020000000004,-87.71401999999999,21.13587299966412,INSPIRATION CORPORATION,06/23/2017
60625,Chicago,IL,Gather,$$,4.5,752,American (New),41.9643402,-87.68536379999999,16.625080379429022,GATHER CHICAGO,09/15/2017
60625,Chicago,IL,Goosefoot,$$$$,4.5,271,American (New),41.9686849,-87.6960164,2.5249077562706033,GOOSEFOOT FOOD & WINE,06/22/2018
60625,Chicago,IL,Fork,$$,4.0,950,American (New),41.965109999999996,-87.68661999999999,16.118091606324047,THE NERVOUS CENTER INC,01/09/2002
60625,Chicago,IL,Rockwell's Neighborhood Grill,$$,4.0,388,American (New),41.96587,-87.6939699,8.25438169162728,RAVENSWOOD GROCERY STORE,03/14/2002
60625,Chicago,IL,Elizabeth Restaurant,$$$$,4.0,174,American (New),41.96954,-87.68863,21.532073362080254,CHINA EXPRESS,01/04/2006
60625,Chicago,IL,Taco In A Bag,$,4.0,378,American (New),41.9650957935014,-87.6860730074457,5.218782051470307,BRIOSO,12/19/2006
60625,Chicago,IL,First Slice,$,4.5,106,American (New),41.9661744,-87.70107709999999,10.810421872888918,DESIREES CHOCOLATES,11/05/2002
60626,Chicago,IL,R Public House,$$,4.0,193,American (New),42.016348,-87.66856999999999,21.701616063276873,R PUBLIC HOUSE,09/29/2016
60628,Chicago,IL,Jimmy's Best,$$,3.0,4,American (New),41.707370000000004,-87.62853,22.746253711854667,"HUT FISH & CHICKEN & MORE, INC.",11/30/2004
60629,Chicago,IL,Top View,$,4.0,78,American (New),41.77816,-87.74048,23.182194014237407,TOP FLIGHT RESTAURANT INC,05/01/2002
60630,Chicago,IL,Jefferson Park Grill,$,4.5,48,American (New),41.9704818725586,-87.7627716064453,12.258556050583525,FREDDY'S FAST FOOD,02/11/2004
60630,Chicago,IL,Lido Banquets,$$$,4.5,26,American (New),41.981609999999996,-87.77360999999999,19.21928124027716,"LIDO, INC",04/25/2002
60631,Chicago,IL,The Curragh Irish Pub,$$,4.0,224,American (New),42.00318,-87.81622,18.271901996576766,GIORDANO'S,08/18/2017
60631,Chicago,IL,Iron Horse Ale House,$$,4.0,190,American (New),41.993359999999996,-87.80131,19.77203840284731,IRON HORSE ALE HOUSE,05/31/2017
60631,Chicago,IL,Bar Louie,$$,3.5,151,American (New),41.9818509309924,-87.8354948759079,90.91963251173433,CLARION BARCELO HOTEL,08/16/2004
60634,Chicago,IL,A&J Krazy Kitchen,$,4.5,31,American (New),41.95228,-87.81642,18.570146196522035,A & J KRAZY KITCHEN,12/22/2017
60637,Chicago,IL,Bar Louie,$$,2.5,262,American (New),41.794802600000004,-87.5807527,136.61551367761987,FUTURE WORLD,06/27/2002
60637,Chicago,IL,jerk48,$$,3.5,18,American (New),41.7731226983765,-87.6110481055007,6.514226474475621,JERK 48,12/19/2018
60638,Chicago,IL,Bohica Bar & Grill,$$,3.5,39,American (New),41.798320000000004,-87.74731,23.23088361447875,BOHICA BAR & GRILL,03/23/2006
60638,Chicago,IL,Pap's Tap,$,3.5,7,American (New),41.79132,-87.78211,19.40766831086211,DOGS & DOGS,02/27/2002
60640,Chicago,IL,Tweet,$$,4.0,1441,American (New),41.973934,-87.65514259999999,4.622612817176248,TWEET,05/25/2017
60640,Chicago,IL,The River Valley Farmer's Table,$$,4.5,320,American (New),41.965285053298004,-87.6757046380287,7.514828063396222,"1826 CAFE, INC.",12/04/2006
60640,Chicago,IL,Vincent Restaurant,$$$,4.0,458,American (New),41.979817544821294,-87.66753443639071,18.707311804609898,VINCENT,08/06/2013
60640,Chicago,IL,Band of Bohemia,$$$,4.0,447,American (New),41.9676094055176,-87.67510986328121,36.89915056185533,BAND OF BOHEMIA,11/13/2015
60640,Chicago,IL,Lady Gregory's,$$,3.5,781,American (New),41.9774908,-87.6685493,11.460032268987048,CHEETAH GYM,08/10/2017
60640,Chicago,IL,Fat Cat,$$,3.5,584,American (New),41.9701070447662,-87.6599332164817,10.5275392077365,FAT CAT,07/07/2017
60641,Chicago,IL,Community Tavern,$$$,4.5,359,American (New),41.954009899999996,-87.74883,16.148727900421914,FRUNCHROOM,04/12/2018
60641,Chicago,IL,Old Irving Brewing,$$,4.0,340,American (New),41.9606817809204,-87.7393777788835,16.083845261377917,EL RESTAURANTE TINAJON,09/27/2013
60642,Chicago,IL,TWO Restaurant,$$$,4.5,788,American (New),41.891329999999996,-87.65613,25.411553104847652,Cannella's On Grand,11/13/2003
60642,Chicago,IL,Burger Bar Chicago - Lincoln Park,$$,4.0,992,American (New),41.910173,-87.648924,14.73146196379031,URBAN BURGER BAR,11/02/2018
60643,Chicago,IL,Horse Thief Hollow,$$,4.0,362,American (New),41.703730799999995,-87.6815386,12.097992267871593,HORSE THIEF HOLLOW,10/24/2017
60646,Chicago,IL,City's Edge Chicago,$$,4.0,67,American (New),41.9975928291085,-87.7612422779202,17.556868141098974,CITY'S EDGE BAR & GRILL,05/07/2014
60646,Chicago,IL,Colletti's,$$,3.0,188,American (New),41.98522,-87.7679,33.20004450493416,COLLETTI'S RESTAURANT,09/30/2016
60647,Chicago,IL,Lula Cafe,$$,4.5,1797,American (New),41.927668036294996,-87.706845233929,21.369647114032944,LOGAN SQUARE AUDITORIUM,11/09/2017
60647,Chicago,IL,Revolution Brewing,$$,4.0,2009,American (New),41.92353,-87.698153,1.1474628946953362,REVOLUTION BREWING,10/25/2017
60647,Chicago,IL,Scofflaw,$$,4.5,700,American (New),41.9173240661621,-87.7071762084961,10.951884327153001,SCOFFLAW,11/16/2017
60647,Chicago,IL,The Bristol,$$$,4.0,1095,American (New),41.92105,-87.67804,12.741937313122103,AMANTI INC,05/03/2004
60647,Chicago,IL,Giant,$$$,4.5,346,American (New),41.9171,-87.70746,20.768873310471847,GO! COMMISSARY AND WHOLESALE,07/12/2017
60647,Chicago,IL,Parson's Chicken & Fish,$$,3.5,901,American (New),41.91758764277,-87.7013152429917,6.633921053173867,CAFETERIA MIRANDA,05/26/2004
60647,Chicago,IL,Park & Field,$$,4.0,385,American (New),41.92433,-87.71428,24.934010993370304,PARK AND FIELD,12/27/2016
60647,Chicago,IL,Daisies,$$,4.5,152,American (New),41.92735,-87.70405,18.80224843657284,ANALOGUE,11/09/2007
60647,Chicago,IL,Arbor,$$,4.5,159,American (New),41.9316253662109,-87.6921005249023,44.74159902981755,ARBOR,05/31/2017
60647,Chicago,IL,Rocking Horse,$$,3.5,501,American (New),41.927558898925795,-87.7044525146484,14.069965484759516,ROCKING HORSE,11/17/2017
60649,Chicago,IL,Parrot Cage Restaurant,$$,3.5,43,American (New),41.768978999999995,-87.56379100000001,239.4416349731665,THE HOUSE OF BING,12/12/2016
60649,Chicago,IL,Red Rooster,$$,4.0,9,American (New),41.765646000000004,-87.574539,73.25667704351068,BABA'S FAMOUS STEAK & LEMONAIDE,02/27/2007
60652,Chicago,IL,Dons Drive Inn,$,4.5,4,American (New),41.751979999999996,-87.70283,19.940515208526538,DON'S HOT DOGS,10/02/2017
60652,Chicago,IL,Philly's Original,$,3.5,7,American (New),41.7430967,-87.70174229999999,27.645234945286255,CITY DOLLAR,03/06/2018
60652,Chicago,IL,Harold's Chicken Shack,$,2.0,9,American (New),41.7354323841866,-87.7052668465687,45.60172071281029,HY-TEK NUTRITION,11/09/2005
60654,Chicago,IL,Beatrix River North,$$,4.0,1665,American (New),41.891477,-87.63081690000001,17.427105701891232,ALOFT CHICAGO CITY CENTER,04/05/2017
60654,Chicago,IL,Gilt Bar,$$$,4.0,1557,American (New),41.8894,-87.6353199,15.760281305605549,AIGRE DOUX,03/27/2008
60654,Chicago,IL,Siena Tavern,$$$,4.0,1607,American (New),41.8890751,-87.6299699,6.143553792875683,SIENA TAVERN,02/17/2017
60654,Chicago,IL,Hub 51,$$,4.0,1664,American (New),41.889978476627604,-87.62969970703121,21.06366337761566,HUB 51 / SUB 51,04/28/2017
60654,Chicago,IL,Yolk River North,$$,4.0,1156,American (New),41.8962039977196,-87.6339920320032,8.99940243987619,JOE'S CRAB SHACK,04/27/2004
60654,Chicago,IL,Sable Kitchen & Bar,$$,4.0,1271,American (New),41.89111,-87.62754,38.56082364056568,"THE STAR OF SIAM, INC.",02/28/2017
60654,Chicago,IL,Kinzie Chophouse,$$$,4.0,697,American (New),41.8893789,-87.634279,10.621949121020196,BOW TRUSS COFFEE,07/28/2016
60654,Chicago,IL,True Food Kitchen,$$,4.5,564,American (New),41.893905889211396,-87.6285624504089,5.702815981022319,Barry's Bootcamp,11/15/2016
60654,Chicago,IL,LYFE Kitchen,$$,4.0,639,American (New),41.889771542578394,-87.63083159444271,32.33263072646633,HOLIDAY GIFTS & SNACKS,05/07/2002
60654,Chicago,IL,Theory,$$,4.0,730,American (New),41.8899748,-87.6286362,5.023925663693131,DOS DIABLOS,01/05/2012
60654,Chicago,IL,The Hampton Social - River North,$$,3.5,872,American (New),41.8898337310695,-87.63785122824171,28.164461552635572,BAUME & BRIX,09/28/2012
60654,Chicago,IL,Arbella,$$,4.5,307,American (New),41.892016280949704,-87.6318293755272,32.159883938958444,PRICE & PRICE ENTERPRISE,04/21/2004
60655,Chicago,IL,Gilhooley's,$$,3.0,47,American (New),41.705900654196704,-87.71860152482991,9.98002364312265,GILHOOLEY'S,05/31/2016
60657,Chicago,IL,Home Bistro,$$,4.5,908,American (New),41.943934999999996,-87.649505,16.676028631906426,HB Home Bistro,07/12/2018
60657,Chicago,IL,BIG & little's Restaurant,$,4.0,880,American (New),41.9400472330334,-87.6555045423279,6.025458207244838,ABIQUIU CAFE,01/11/2011
60657,Chicago,IL,Cheesie's Pub and Grub,$,4.0,1101,American (New),41.9400049,-87.6538139,2.452537103592903,AZHA RESTAURANT INC.,02/17/2011
60657,Chicago,IL,DryHop Brewers,$$,4.0,702,American (New),41.9392443174878,-87.64420639629509,5.763516030137639,"ANATOLIA KITCHEN & BAKERY, INC.",11/13/2017
60657,Chicago,IL,Native Foods Cafe,$$,4.0,477,American (New),41.939789250655295,-87.65506912353399,15.692542203769284,MOTI MAHAL RESTAURANT,10/28/2003
60657,Chicago,IL,Mortar & Pestle,$$,4.0,409,American (New),41.93806,-87.64464,6.253455981078492,CRAZY CHICKENS,03/28/2011
60657,Chicago,IL,Pick Me Up Cafe,$$,4.0,888,American (New),41.9438,-87.65403,6.05638660320355,PICK ME UP CAFE,01/05/2017
60657,Chicago,IL,Yoshi's Cafe,$$$,4.0,292,American (New),41.9417028,-87.6492322,4.668955237145288,YOSHI'S CAFE,02/03/2017
60657,Chicago,IL,Wood,$$,4.0,482,American (New),41.942829280388,-87.649184667136,2.659142677267293,FIREFLY,03/12/2007
60657,Chicago,IL,Schubas Tavern,$$,4.0,540,American (New),41.93965,-87.66343,19.96001836109578,SCHUBAS TAVERN / TIED HOUSE,10/27/2017
60657,Chicago,IL,Beezzee,$$,4.5,235,American (New),41.9328851,-87.6537007,2.0134637857947815,Beezzee,10/03/2018
60657,Chicago,IL,Ella Elli,$$,4.5,211,American (New),41.9451151,-87.6630233,30.786450988703244,ELLA ELLI,02/16/2017
60660,Chicago,IL,m.henry,$$,4.0,1629,American (New),41.9856948852539,-87.66888427734379,17.64683071532721,m. henry  LLC,07/27/2007
60660,Chicago,IL,Nookies Edgewater,$$,4.0,513,American (New),41.98395,-87.65824,22.99295178977244,NOOKIES CAFE & RESTAURANT,08/29/2017
60660,Chicago,IL,Uncommon Ground,$$,3.5,730,American (New),41.9980244460366,-87.6655852796304,1.8082892463535318,"SCARLET MOON, INC.",08/09/2002
60661,Chicago,IL,Blackbird,$$$,4.0,1471,American (New),41.8842918333133,-87.6435537582028,5.070525263305673,BLACKBIRD,05/15/2017
60661,Chicago,IL,Carnivale,$$$,4.0,2112,American (New),41.887075681458995,-87.64604872827101,100.69478917449702,THE CHICAGO FISH HOUSE,04/12/2006
60661,Chicago,IL,Oriole,$$$$,5.0,226,American (New),41.8860966,-87.6449481,19.32353444271444,ORIOLE,03/22/2018
60661,Chicago,IL,Sepia,$$$,4.0,1056,American (New),41.883933,-87.6424,14.40566150239349,SEPIA,05/01/2017
60666,Chicago,IL,Publican Tavern,$$,3.5,305,American (New),41.9766490093115,-87.9009209637348,1887.6060227803778,TRAVEL TRADERS #533,02/22/2007
60666,Chicago,IL,Gaslight Club,$$$,3.5,78,American (New),41.9779648218459,-87.90517330169679,2202.788668355016,TRAVEL TRADERS #533,02/22/2007
60666,Chicago,IL,Wolfgang Puck Express,$$,2.5,241,American (New),41.9770378867243,-87.90723429621741,2388.63157964394,TRAVEL TRADERS #533,02/22/2007
60666,Chicago,IL,Goose Island Brewpub,$$,2.0,283,American (New),41.9768015357764,-87.8971948386615,1586.0803603124214,TRAVEL TRADERS #533,02/22/2007
60666,Chicago,IL,Wolfgang Puck Express,$$,2.5,128,American (New),41.9783237336037,-87.90694355964659,2342.4210210661254,TRAVEL TRADERS #533,02/22/2007
60666,Chicago,IL,Beaudevin,$$,3.5,37,American (New),41.9783895338752,-87.91025072336201,2613.6644183488006,TRAVEL TRADERS #533,02/22/2007
60666,Chicago,IL,Wolfgang Puck Restaurant,$$,3.0,32,American (New),41.9770579723372,-87.9071812105591,2383.8948928847303,TRAVEL TRADERS #533,02/22/2007
60666,Chicago,IL,Stanley's Kitchen and Tap,$$,2.0,85,American (New),41.9752970681188,-87.9064460039139,2368.911316459935,TRAVEL TRADERS #533,02/22/2007
60630,Chicago,IL,Hala In Restaurant,$$,4.0,267,Arabian,41.968204899999996,-87.74394000000001,2.677630017849442,COUSCOUS HOUSE,09/24/2007
60603,Chicago,IL,Boleo,$$,4.0,111,Argentine,41.8807491198048,-87.63157213595991,9.215759713104438,STEADFAST RESTAURANT,05/14/2018
60607,Chicago,IL,El Che Bar,$$$,4.0,172,Argentine,41.8829851,-87.6491649,2.691040273367686,EL CHE BAR,08/09/2018
60613,Chicago,IL,Tango Sur,$$,4.0,2197,Argentine,41.9507843879442,-87.6639031774259,8.541137673475337,TANGO SUR,08/05/2003
60613,Chicago,IL,FRÍO Gelato - Lakeview / Wrigleyville,$,4.5,48,Argentine,41.949644799999994,-87.6639119,13.006605095917685,FRIO Gelato,03/31/2017
60618,Chicago,IL,La Nonna,$$,5.0,243,Argentine,41.9429574,-87.7203016,16.752283945714062,CURIO CAFE,02/23/2009
60618,Chicago,IL,Ñ,$$,4.0,245,Argentine,41.93568320000001,-87.6927103,11.787233158776077,N,02/17/2005
60622,Chicago,IL,Folklore Argentine Grill,$$,4.0,622,Argentine,41.9034461975098,-87.67992401123051,22.819217137207545,FOLKLORE,11/18/2016
60640,Chicago,IL,FRÍO Gelato - Andersonville,$$,5.0,1,Argentine,41.9759727698183,-87.6684518537166,7.9552734892479,FRIO GELATO,10/29/2018
60641,Chicago,IL,Buenos Aires Deli,$$,4.5,24,Argentine,41.93717,-87.74722,25.36800978616468,BUENOS AIRES DELI,10/25/2017
60647,Chicago,IL,El Nandu Restaurant,$$,4.0,336,Argentine,41.92452,-87.6962099,21.207998646184787,NANDU RESTAURANT LTD,10/05/2017
60659,Chicago,IL,Evita Argentinian Steakhouse,$$$$,4.0,32,Argentine,41.992979999999996,-87.71219,20.437877382396053,CAMPECH CORPORATION,02/04/2013
60601,Chicago,IL,MingHin Cuisine,$$,4.0,645,Asian Fusion,41.8851133316306,-87.61913405771358,33.078796783034946,MAISON,05/25/2012
60601,Chicago,IL,Wow Bao,$,3.5,543,Asian Fusion,41.8859149826022,-87.6282665232788,6.424544235301241,ETHEL'S CHOCOLATE LOUNGE,02/27/2008
60603,Chicago,IL,Brightwok Kitchen,$$,4.5,533,Asian Fusion,41.8794583529234,-87.62700274586679,9.369204712661281,BASKIN ROBBINS/DUNKIN DONUTS,02/13/2002
60603,Chicago,IL,Ara On,$$,4.0,317,Asian Fusion,41.879533200000004,-87.6327046,22.251993162689168,W CHICAGO CITY CENTER,11/05/2004
60603,Chicago,IL,Flat Top Grill,$$,3.5,545,Asian Fusion,41.881162200000006,-87.6263129,19.26280060940896,FLAT TOP GRILL,10/13/2016
60603,Chicago,IL,Hot Woks Cool Sushi,$$,3.5,562,Asian Fusion,41.88114,-87.625,24.60137444689898,UNIVERSITY CLUB OF CHICAGO,03/02/2012
60605,Chicago,IL,Saucy Porka,$,4.5,600,Asian Fusion,41.8765020444174,-87.6331966288361,27.744735371478093,DOWN TOWN TOBACCO,01/03/2002
60605,Chicago,IL,Asian Outpost,$$,4.0,360,Asian Fusion,41.865437,-87.62554163205809,12.242150456398749,ASIAN OUTPOST,12/22/2017
60605,Chicago,IL,Niu B,$$,4.0,237,Asian Fusion,41.870627153595,-87.6243124902248,16.557417289829964,NIU B,04/13/2016
60606,Chicago,IL,Spotted Monkey,$$,4.5,165,Asian Fusion,41.8772,-87.63476999999999,22.51252480687724,HAUTE SAUSAGE,11/19/2013
60606,Chicago,IL,Hot Woks Cool Sushi,$$,3.5,172,Asian Fusion,41.8795049,-87.6361169,25.93024556008657,7-ELEVEN,08/31/2016
60607,Chicago,IL,ML Kitchen,$$,4.0,113,Asian Fusion,41.869543,-87.65578599999999,2.63235052290006,ML KITCHEN INC.,12/15/2016
60607,Chicago,IL,Sushi Pink,$$,3.5,226,Asian Fusion,41.882829,-87.65035300000001,24.92207878256886,SUSHI PINK,04/20/2018
60608,Chicago,IL,Joy Yee's Noodle Shop,$$,3.5,615,Asian Fusion,41.864330135584204,-87.6467004576721,6.264335469647634,REGGIO'S PIZZA,11/29/2005
60608,Chicago,IL,South Kawa,$$,4.0,222,Asian Fusion,41.83143602351421,-87.64600217342381,14.354988051374832,FAMILY DOLLAR #3158,11/06/2017
60610,Chicago,IL,Forastero,$,4.5,265,Asian Fusion,41.9108,-87.64045,20.808995704347726,"FORASTERO, LLC",07/03/2017
60611,Chicago,IL,Niu Japanese Fusion Lounge,$$,3.5,758,Asian Fusion,41.891185141978,-87.618678666509,11.737223266553025,MAX AND BENNY'S,02/16/2006
60611,Chicago,IL,Wow Bao,$,3.5,581,Asian Fusion,41.8979009401519,-87.6237559318542,24.629934645717768,AMORINO WATER TOWER LLC,11/24/2015
60611,Chicago,IL,Big Bowl,$$,3.5,749,Asian Fusion,41.892629,-87.6261317,4.958592715551157,CALIFORNIA PIZZA KITCHEN,03/07/2017
60611,Chicago,IL,P.F. Chang's,$$,3.0,425,Asian Fusion,41.8919052750496,-87.6269987225533,22.855969676855413,P.F. CHANG CHINA BISTRO,02/10/2017
60613,Chicago,IL,Earth's Kitchen,$$,4.0,122,Asian Fusion,41.9495682443371,-87.64937974512578,2.747110754117198,EARTH'S KITCHEN,06/14/2018
60614,Chicago,IL,Del Seoul,$,4.5,1929,Asian Fusion,41.929444000000004,-87.643016,7.569622723347946,COUTURE CREPE CAFE,04/14/2009
60614,Chicago,IL,Macku Sushi,$$$,4.0,396,Asian Fusion,41.92255,-87.66521,15.957780371178558,BRISTO ULTRA,06/03/2004
60614,Chicago,IL,Nori Sushi Bar - Lakeview,$$,4.0,488,Asian Fusion,41.932718,-87.65353499999999,5.664590774575542,PENNY'S NOODLE SHOP,04/06/2017
60614,Chicago,IL,Shine Restaurant,$$,3.5,332,Asian Fusion,41.921935818745105,-87.64836735160509,2.579004590727237,SHINE RESTAURANT,04/12/2011
60614,Chicago,IL,Asian Cajun,$$,4.0,225,Asian Fusion,41.92604,-87.66852,17.430426618712985,ASIAN CAJUN,12/14/2017
60614,Chicago,IL,Circle Sushi & Grill,$$,4.0,167,Asian Fusion,41.9116301504361,-87.64791995286942,18.91872642338842,CIRCLE SUSHI & GRILL,01/17/2018
60614,Chicago,IL,Miss Asia,$$,4.0,258,Asian Fusion,41.933169899999996,-87.64076999999999,20.127181673138615,"MISS ASIA, LLC",03/20/2017
60615,Chicago,IL,Chant,$$,3.5,424,Asian Fusion,41.7994154258194,-87.588751312442,2.8912805324114776,CHANT,04/30/2018
60615,Chicago,IL,Saucy Porka,$$,4.0,40,Asian Fusion,41.79538,-87.59696,23.648510007621503,"Saucy Porka Hyde Park, LLC",07/31/2018
60615,Chicago,IL,Eto'o Modern Asian Cuisine,$$,3.5,50,Asian Fusion,41.799368900000005,-87.5922029,4.022415933729013,ETO'O,08/24/2017
60616,Chicago,IL,Go 4 Food,$$,4.0,636,Asian Fusion,41.851085,-87.6326203,5.345077408582821,GO 4 FOOD INC.,05/10/2018
60616,Chicago,IL,Hing Kee Restaurant,$$,3.5,507,Asian Fusion,41.853947999999995,-87.633651,36.38463719924824,7 TREASUES CANTONESE CUISINE,05/22/2003
60616,Chicago,IL,Joy Yee Plus,$$,3.5,323,Asian Fusion,41.853795,-87.63469599999999,1.7142061917160505,JOY YEE NOODLE SHOP,04/30/2018
60617,Chicago,IL,New Chop Suey,$,2.5,3,Asian Fusion,41.7294425964355,-87.55084228515621,21.4230680780896,NEW CHOP SUEY,06/27/2008
60618,Chicago,IL,Friendship Chinese Restaurant,$$,3.5,777,Asian Fusion,41.9324798583984,-87.7135467529297,16.88657835349018,FRIENDSHIP RESTAURANT,03/14/2017
60620,Chicago,IL,Ho Ho Restaurant,$,4.0,13,Asian Fusion,41.7504086,-87.6441649,9.685611398332094,5 STARS CHICKEN & FISH,07/11/2018
60622,Chicago,IL,Kai Zan,$$$,4.5,872,Asian Fusion,41.895505137499796,-87.6915407180786,12.287911298549512,Kai Zan,04/19/2018
60622,Chicago,IL,En Hakkore 2.0,$$,4.5,368,Asian Fusion,41.90869,-87.6743,21.074447194017267,EN HAKKORE 2.0,02/16/2018
60622,Chicago,IL,Oiistar,$$,4.0,874,Asian Fusion,41.9070880100627,-87.6720839738846,2.1620061057706326,OIISTAR,08/31/2018
60622,Chicago,IL,Mott St,$$,4.0,646,Asian Fusion,41.9071254164458,-87.66738346057508,10.860809183774379,LA BROCHETTE RESTAURANT,12/16/2008
60622,Chicago,IL,Silli Kori,$$,4.5,172,Asian Fusion,41.90286,-87.67935,20.29871698380045,Silli Kori,10/27/2010
60622,Chicago,IL,MAK Restaurant,$$,4.0,229,Asian Fusion,41.9032611,-87.6759818,6.734828908107239,JINX,11/18/2002
60622,Chicago,IL,Urbanbelly,$$,4.0,188,Asian Fusion,41.90975,-87.6778099,18.098873742078045,LA COLOMBE,06/28/2017
60625,Chicago,IL,Jibek Jolu,$$,4.0,297,Asian Fusion,41.9732243,-87.69135779999999,8.290520698779074,C & S PUB,11/12/2002
60625,Chicago,IL,2 Asian Brothers,$,4.0,170,Asian Fusion,41.97599,-87.70962,15.8961706831353,2 ASIAN BROTHERS,06/28/2017
60634,Chicago,IL,Li Hing,$,4.0,109,Asian Fusion,41.93878,-87.77103000000001,17.52799183658024,ZASCIANEK,02/26/2004
60634,Chicago,IL,Ninja Sushi & Thai Restaurant,$$,4.0,95,Asian Fusion,41.952448,-87.7671049,8.716512850016175,COCHINITA TACO CO.,10/16/2017
60637,Chicago,IL,Seoul Taco,$$,4.5,11,Asian Fusion,41.79139813118329,-87.5939189784715,4.478838159394601,CEMITAS PUEBLA,09/06/2016
60638,Chicago,IL,Sarku Japan,$$,1.0,1,Asian Fusion,41.759021999999995,-87.744843,273.8122853871533,RED COACH RESTAURANT,10/03/2017
60639,Chicago,IL,Googoo's Table,$,3.5,43,Asian Fusion,41.917308807373,-87.7361297607422,17.657928018785515,GOOGOO'S TABLE,08/14/2017
60640,Chicago,IL,Pokiology,$$,4.5,185,Asian Fusion,41.965489041314,-87.6613923567586,19.206194490637117,CEYLONS CONVENIENT STORE,10/23/2013
60640,Chicago,IL,Dib,$$,3.5,318,Asian Fusion,41.9689463,-87.65568209999999,17.879320329367587,DIB SUSHI BAR AND THAI CUISINE,06/15/2017
60640,Chicago,IL,Furama Restaurant,$$,3.5,419,Asian Fusion,41.9719356,-87.6599421,41.41261755104182,DONG THANH CAFE INC,07/24/2009
60640,Chicago,IL,Lao Sze Chuan - Uptown,$$,3.5,429,Asian Fusion,41.970021,-87.659915,9.114568874542696,LAO SZE CHUAN UPTOWN,07/24/2017
60640,Chicago,IL,Miso Asian Kitchen,$,4.0,126,Asian Fusion,41.96314,-87.6556,19.98189719319753,NIGERIAN KITCHEN INCORPORATED,12/08/2017
60641,Chicago,IL,Manee Thai Restaurant,$$,3.0,281,Asian Fusion,41.94624,-87.7277,16.813518947250945,EL SUENO,12/04/2009
60641,Chicago,IL,Ysabel's Grill,$$,3.0,26,Asian Fusion,41.953514899999995,-87.75036329999999,4.629798834601941,P & S FOOD & LIQUOR,08/16/2006
60646,Chicago,IL,King Pho,$,3.5,269,Asian Fusion,41.9974974561978,-87.7644239746759,6.887322875516511,AL PRIMO CANTO,11/12/2008
60646,Chicago,IL,Chai's Asian Bistro,$$,4.0,81,Asian Fusion,41.989931836724296,-87.7479629963636,9.252353939779667,CAMPECHE EXPRESS,10/23/2002
60646,Chicago,IL,Kung Fu Wok Restaurant,$$,3.5,3,Asian Fusion,41.99508,-87.78528,17.944017055752276,CHINA KING RESTAURANT,10/27/2005
60647,Chicago,IL,Serai,$$,4.5,440,Asian Fusion,41.920613200000005,-87.69333940000001,25.944890838370117,ACCANTO,12/09/2004
60647,Chicago,IL,The Bento Box,$$,4.5,225,Asian Fusion,41.91786,-87.68436,14.077593464896161,BENTO BOX AND ARTISAN CATERING,10/10/2017
60647,Chicago,IL,RYUU Asian BBQ & Sushi,$$,4.5,163,Asian Fusion,41.9313684850931,-87.71131798624991,8.313708514954046,"EL MERCADO BARATO, INC.",10/28/2011
60647,Chicago,IL,Trike,$$,4.0,187,Asian Fusion,41.9276161193848,-87.70455932617192,13.820117447924044,TRIKE THAI NOODLE + SUSHI,10/26/2017
60647,Chicago,IL,Bixi Beer,$$,4.0,118,Asian Fusion,41.9271457780326,-87.70398641880101,4.010688808676106,BIXI BREWERY,07/13/2018
60647,Chicago,IL,Landbirds,$$,4.5,38,Asian Fusion,41.927640000000004,-87.69782,17.872607736781355,ANONG INC.,11/16/2009
60653,Chicago,IL,De Rice,$,3.5,77,Asian Fusion,41.8096849,-87.6028599,25.41552184987775,DERICE ASIAN CUSINE,12/05/2016
60654,Chicago,IL,Three Dots and a Dash,$$,4.0,2741,Asian Fusion,41.890439130327294,-87.6306027367742,28.596961805673605,BAR RAMONE,08/01/2018
60654,Chicago,IL,Sunda,$$$,4.0,2610,Asian Fusion,41.890946899999996,-87.63172440000001,9.19935077206921,SUNDA,02/09/2009
60654,Chicago,IL,Seoul Taco,$,4.0,540,Asian Fusion,41.8959233394607,-87.63139575015622,2.3023486864997076,25 DEGREES,03/02/2018
60654,Chicago,IL,Katana Sushi & Robata Bar,$$$$,4.0,202,Asian Fusion,41.8890840112679,-87.6295050458455,8.256483776831981,HARRY CARAY'S RESTAURANT,01/29/2018
60657,Chicago,IL,BITES,$$,4.0,432,Asian Fusion,41.942209999999996,-87.65209,17.255939940392192,MIA FRANCESCA CORP,01/21/2009
60657,Chicago,IL,Rice'N Bread,$,4.5,287,Asian Fusion,41.9446344810848,-87.6540841498032,6.226003113407636,HAMBURGER KING,02/05/2003
60657,Chicago,IL,Pho's Spicier Thai Cuisine,$,4.0,533,Asian Fusion,41.942444,-87.670869,9.066144342355381,Lucy's Mexican Restaurant,02/21/2003
60657,Chicago,IL,Wakamono,$$,3.5,500,Asian Fusion,41.9423546,-87.6442834,8.396751607129916,WAKAMONO,01/06/2005
60657,Chicago,IL,bopNgrill Belmont,$$,4.0,169,Asian Fusion,41.9399377250105,-87.65238026441808,12.175906105021106,Jamba Juice #953,04/23/2010
60657,Chicago,IL,Yellowtail Sushi Bar and Asian Kitchen,$$,4.0,239,Asian Fusion,41.9388197,-87.64444870000001,6.4251043868603945,HATSU HANA JAPANESE RESTAURANT,07/24/2013
60657,Chicago,IL,Ping Pong,$$,3.5,591,Asian Fusion,41.9424108,-87.6446454,17.615033400994147,BOUNTIFUL EATERY INC.,07/18/2014
60657,Chicago,IL,Tanuki,$$,4.0,235,Asian Fusion,41.9365467454796,-87.65416874900141,6.9399333615322085,TANUKI,05/17/2017
60657,Chicago,IL,Four Belly,$$,3.5,259,Asian Fusion,41.94062755846279,-87.6510916202377,2.939679634884479,EL AUTHENTICO 5 DE MAYO,02/19/2013
60657,Chicago,IL,Glaze Teriyaki,$$,4.0,165,Asian Fusion,41.938117999999996,-87.6445007,1.4866142400451876,MAISON MARCEL,07/21/2017
60657,Chicago,IL,Rise Sushi & Sake Lounge,$$,3.5,428,Asian Fusion,41.943632,-87.663533,22.537776868742018,GALLERIA LIQUEURS,02/15/2017
60659,Chicago,IL,Yeowoosai,$$,4.0,171,Asian Fusion,41.995304,-87.6997413,8.425045823196237,PHOENICIAN NIGHTS,05/13/2002
60659,Chicago,IL,Ajwaah Sweets,$,5.0,33,Asian Fusion,41.9975851,-87.69200759999998,0.2714421678063812,AJWAAH SWEETS,06/21/2017
60659,Chicago,IL,Pho 5lua,$$,3.5,117,Asian Fusion,41.9955733,-87.7127057,4.231507036315032,ATTRA,10/21/2009
60660,Chicago,IL,Summer,$$,3.5,200,Asian Fusion,41.99427,-87.65937,21.583300977739526,EDGEWATER RESTAURANT,08/14/2003
60660,Chicago,IL,Rice Thai Asian Kitchen,$$,4.0,73,Asian Fusion,41.9901249,-87.6597621,1.4163003900518598,BUNZ BAKERY,06/26/2008
60660,Chicago,IL,Nori Sushi - Edgewater,$$,3.5,189,Asian Fusion,41.9980624,-87.6621615,8.289199777251081,OYINGBO INTERNATIONAL MARKET,02/24/2010
60660,Chicago,IL,En Lai Asian Grill,$$,3.5,123,Asian Fusion,41.9922295,-87.66072079999999,19.80195913426005,HOMELAND FOOD MARKET,09/20/2002
60614,Chicago,IL,Cafe Vienna,$,4.0,619,Austrian,41.928489,-87.642033,0.9591424857923526,BARKSON,03/19/2003
60607,Chicago,IL,La Sirena Clandestina,$$,4.0,481,Brazilian,41.887103,-87.651697,28.194450535188597,ACE HOTEL CHICAGO,06/23/2017
60611,Chicago,IL,Texas de Brazil,$$$,4.0,181,Brazilian,41.891161,-87.62211500000001,9.221475759477073,TEXAS DE BRAZIL,08/10/2017
60612,Chicago,IL,Sinha Elegant Cuisine,$$,4.5,132,Brazilian,41.87888,-87.67735,5.838733653996857,"SINHA, LTD",09/06/2018
60615,Chicago,IL,Fabiana's Bakery,$$,4.0,65,Brazilian,41.7997729339275,-87.58428587354281,16.055518417007065,FABIANA'S BAKERY,05/17/2017
60625,Chicago,IL,Brazilian Bowl,$$,4.0,139,Brazilian,41.96861810000001,-87.7086805,7.061960000353449,"NANCY,S RAINBOW & DONUTS",11/15/2007
60647,Chicago,IL,Brasil Legal Cafe,$$,4.0,39,Brazilian,41.921620000000004,-87.68719,16.913259398763934,BRASIL LEGAL,10/20/2017
60653,Chicago,IL,Norman's Bistro,$$,3.0,174,Brazilian,41.81667,-87.60146,29.041743844208206,NORMAN'S,12/01/2016
60654,Chicago,IL,Fogo de Chão Brazilian Steakhouse,$$$,4.5,1525,Brazilian,41.8942208218562,-87.6323306601503,18.744789260747105,FOGO DE CHAO CHURRASCARIA (CHICAGO) LLC,02/26/2018
60654,Chicago,IL,ZED451,$$$,4.0,1302,Brazilian,41.896111,-87.63101999999999,9.076036786153233,ISAAC HAYES MUSIC FOOD PASSION,01/16/2003
60657,Chicago,IL,Brazilian Bowl,$,4.0,446,Brazilian,41.940256,-87.644653,9.289538327346685,CAFE LATAKIA,03/16/2005
60660,Chicago,IL,CFA Clubhouse,$$,5.0,4,Brazilian,41.9932767,-87.6703349,6.410614361697784,ESTADIO GRILL,04/18/2018
60601,Chicago,IL,Elephant & Castle,$$,3.0,545,British,41.885509899999995,-87.62603,11.419977331288493,ELEPHANT & CASTLE,11/02/2012
60603,Chicago,IL,Elephant & Castle,$$,3.5,508,British,41.879309125108,-87.63117572477199,1.0916895727640967,ELEPHANT & CASTLE PUB & RESTAURANT,09/28/2016
60603,Chicago,IL,Pub Royale,$$,2.5,3,British,41.8798638284247,-87.6306062936783,15.451185072548624,Antique Taco Chiquito,07/31/2018
60608,Chicago,IL,Pleasant House Pub,$$,4.5,708,British,41.85357,-87.64621,13.731957101286454,PLEASANT HOUSE PUB,12/07/2017
60613,Chicago,IL,The Globe Pub,$$,4.0,415,British,41.954487,-87.677776,23.288070571203086,THE GLOBE PUB,05/14/2018
60614,Chicago,IL,The Red Lion Pub,$$,4.0,155,British,41.9262503,-87.6502686,16.067178701399325,MILLIE'S SUPPER CLUB,02/15/2018
60622,Chicago,IL,Pub Royale,$$,4.0,360,British,41.90286,-87.67916,20.81731484534821,PUB ROYALE,09/28/2016
60625,Chicago,IL,The Red Lion Lincoln Square,$$,4.0,148,British,41.9679049150299,-87.6937158119112,28.429973875264697,CAFE BLU,02/01/2008
60647,Chicago,IL,Owen & Engine,$$,4.0,1035,British,41.93047,-87.68823,20.100174899984204,OWEN & ENGINE,11/06/2017
60601,Chicago,IL,New Orleans Kitchen,$,3.5,63,Cajun/Creole,41.884739,-87.63133,31.484227722667978,A & B CONVENIENCE,11/14/2005
60601,Chicago,IL,Lagnaippe,$$,1.0,1,Cajun/Creole,41.885837554931605,-87.6213607788086,47.93460618607713,ARIA RESTAURANT,11/16/2004
60602,Chicago,IL,Heaven on Seven Wabash,$$,4.0,390,Cajun/Creole,41.88347,-87.62575,28.277850074158234,CHICAGO METRO MART INC.,08/01/2018
60603,Chicago,IL,Urban Market,$$,3.0,57,Cajun/Creole,41.8816126,-87.629604,22.171399669490345,CLIENT DINING ROOM,03/13/2018
60605,Chicago,IL,Buddy Guy's Legends,$$,4.0,496,Cajun/Creole,41.8730157686049,-87.6262064974468,8.165233014148436,A. P. DELI 5,02/28/2007
60605,Chicago,IL,Lowcountry South Loop,$$,4.0,137,Cajun/Creole,41.8682299,-87.62635,30.262823422856894,BELLY UP SMOKEHOUSE AND SALOON,01/11/2016
60607,Chicago,IL,Mad Boiler,$$,4.0,161,Cajun/Creole,41.881370000000004,-87.65381,22.355160022373415,Jerry's Sandwiches,05/14/2010
60607,Chicago,IL,Backdoor Saloon,$$,4.0,21,Cajun/Creole,41.88466,-87.64923,19.434227249761566,GEORGE TSILIMIGRAS,04/15/2005
60607,Chicago,IL,DrinkHaus Supper Club,$$,3.0,65,Cajun/Creole,41.87831,-87.64805,31.514659974443685,BARREL CAFE,05/12/2003
60611,Chicago,IL,Bubba Gump Shrimp Co.,$$,3.0,485,Cajun/Creole,41.8914094,-87.60962909999999,93.72768264737859,AMERICA'S DOG,08/28/2017
60613,Chicago,IL,Spoken Cafe,$,4.5,99,Cajun/Creole,41.961614998935794,-87.67503563431549,0.7383416379530013,BAYAN KO,10/03/2018
60614,Chicago,IL,Local Option,$$,3.5,365,Cajun/Creole,41.921953,-87.656166,18.281510772563117,THE LOCAL OPTION TAVERN,02/28/2017
60614,Chicago,IL,Asian Cajun,$$,4.0,225,Cajun/Creole,41.92604,-87.66852,17.430426618712985,ASIAN CAJUN,12/14/2017
60614,Chicago,IL,Captain's Catch,$$,4.0,103,Cajun/Creole,41.9321,-87.64435,16.017245471397796,CAPTAIN'S CATCH,12/20/2016
60614,Chicago,IL,Jumbo Crab,$$,5.0,2,Cajun/Creole,41.9250751,-87.66494490000001,8.278385580276543,IRON LOTUS,04/25/2018
60616,Chicago,IL,Chef Luciano,$$,4.0,188,Cajun/Creole,41.8526205,-87.6250488,27.473420861416123,CHEF LUCIANO,05/04/2018
60616,Chicago,IL,Asian Cajun PLUS,$$,4.0,60,Cajun/Creole,41.85351179999999,-87.6269896,28.592524052633454,ASIAN CAJUN PLUS,10/31/2017
60617,Chicago,IL,Nita's Gumbo,$$,3.5,86,Cajun/Creole,41.747556972226704,-87.586419390213,36.31739067101678,LJ'S LINEN ROOM,09/19/2008
60622,Chicago,IL,Fifolet,$$,4.0,194,Cajun/Creole,41.90351,-87.67653,22.049007659756825,COCO ROUGE,10/11/2006
60622,Chicago,IL,Soule,$$,4.5,123,Cajun/Creole,41.89563,-87.67582,21.995753879213144,SOULE' CHICAGO CORP.,10/27/2017
60622,Chicago,IL,The Angry Crab,$$,3.5,238,Cajun/Creole,41.9054327842223,-87.66993307250351,2.129678939257441,BIG & LITTLE'S RESTAURANT,08/01/2017
60640,Chicago,IL,New Orleans Seafood,$$,4.5,41,Cajun/Creole,41.9733425667309,-87.656897617771,7.525635571161624,LA PATISSERIE P,06/19/2017
60644,Chicago,IL,Jerk Taco Man,$,3.5,225,Cajun/Creole,41.87683,-87.72570999999999,16.61820901835847,JERK TACO MAN 1,05/17/2017
60645,Chicago,IL,Kizin Creole Restaurant,$$,4.0,40,Cajun/Creole,42.01927,-87.688076,19.2481375708406,APOLLO'S PIZZERIA & CAFE,06/22/2004
60647,Chicago,IL,The Crab Pad,$$,4.5,374,Cajun/Creole,41.927440000000004,-87.70424,16.600677955000712,BOUSTAN,10/01/2013
60653,Chicago,IL,The Cajun Connoisseur,$$,4.0,72,Cajun/Creole,41.8161985809246,-87.606238424778,27.339039831055704,CAFE ON THE GROVE,07/30/2015
60653,Chicago,IL,Norman's Bistro,$$,3.0,174,Cajun/Creole,41.81667,-87.60146,29.041743844208206,NORMAN'S,12/01/2016
60657,Chicago,IL,Lowcountry Lakeview,$$,4.5,494,Cajun/Creole,41.942883,-87.6528328,2.915407244182991,LOWCOUNTRY,02/07/2017
60659,Chicago,IL,The Angry Crab,$$,4.0,827,Cajun/Creole,41.98453320000001,-87.6972261,2.842523905187409,"SEOUL TOKYO CAFE, INC.",05/13/2014
60659,Chicago,IL,Saigon Bistro,$$,4.0,106,Cajun/Creole,41.995204,-87.699738,4.067270317690535,GOGI NARA,09/12/2017
60660,Chicago,IL,Fireside Restaurant,$$,3.5,572,Cajun/Creole,41.9861937390532,-87.67450106375429,5.301685710907513,FIRESIDE TAVERN AND GRILL,07/11/2017
60661,Chicago,IL,JoKeR's Cajun Kitchen,$$,3.5,7,Cajun/Creole,41.8839695,-87.6410747,24.500214637499237,B.I. TEA & DIM SUM,09/26/2018
60601,Chicago,IL,Mr. Brown's Lounge,$$,3.5,146,Caribbean,41.8866851,-87.62500990000001,33.28183540445145,China Grill,09/01/2010
60609,Chicago,IL,Fire Jerk Jamaican Jerk Chicken,$,4.5,25,Caribbean,41.794402090505706,-87.6446318998933,15.395204100337457,NEW CHINA WOK,08/21/2018
60612,Chicago,IL,Mr Brown's Lounge,$$,3.5,348,Caribbean,41.8956672160463,-87.68451254907379,0.728706342593791,MR. BROWN'S LOUNGE,11/04/2016
60614,Chicago,IL,Cocina TARASCAS Mexican Restaurant,$$,3.5,427,Caribbean,41.929950700000006,-87.6430564,11.59510056493384,COUNTRY FRESH FINER FOODS INC,04/05/2017
60614,Chicago,IL,The Wild Hare,$$,4.0,180,Caribbean,41.92951,-87.64918,12.064410958085265,VICTORY LIQUORS,05/09/2006
60615,Chicago,IL,Ja' Grill Hyde Park,$$,3.5,405,Caribbean,41.8004951,-87.588829,12.754454083670453,JOLLY PUMPKIN PIZZERIA & BREWERY,10/23/2017
60615,Chicago,IL,Uncle Joe's Jerk Chicken,$$,3.5,195,Caribbean,41.802229499999996,-87.589422,13.08471163295278,JOE'S & KEN'S II,05/16/2018
60615,Chicago,IL,Nathan's Chicago Style,$,3.0,58,Caribbean,41.7996249,-87.5922875,1.42202288296706,NATHAN'S CHICAGO STYLE,05/10/2018
60616,Chicago,IL,14 Parish,$$,4.5,156,Caribbean,41.85008,-87.62326,27.654443940638565,14 PARISH,01/05/2017
60616,Chicago,IL,Jamaican Jerk King,$$,4.0,59,Caribbean,41.8311949,-87.621535,7.260011040707452,JAMAICAN JERK KING INC.,05/15/2018
60616,Chicago,IL,Jamaica Jerk Villa Bar & Grill,$$,2.5,139,Caribbean,41.8524,-87.62429,30.01136590166089,JERK VILLA BAR & GRILL,06/12/2017
60617,Chicago,IL,Jamaican Jerk Palace,$$,3.5,27,Caribbean,41.73895,-87.58595,10.809811042512667,4JS,01/29/2013
60618,Chicago,IL,Cuba 312,$$,4.5,259,Caribbean,41.943481,-87.680633,20.027424509983234,CUBA 312,06/12/2017
60619,Chicago,IL,Tropic Island Chicken,$$,3.5,33,Caribbean,41.75094,-87.61046,17.014255972754345,A PREPARED TABLE CATERING,07/30/2004
60619,Chicago,IL,Just Jerk Cafe,$$,3.5,15,Caribbean,41.7507781112255,-87.6204819604754,14.823601198824019,House of Salads,04/18/2011
60619,Chicago,IL,Front Yard Jerk Grille,$$,3.5,11,Caribbean,41.7657149,-87.62202579999999,3.7123601297444067,FIRE N ICE,07/14/2011
60619,Chicago,IL,Jerk Taco Man,$$,2.5,21,Caribbean,41.7538245,-87.62446120000001,6.6859131673058,JERK TACO MAN,03/16/2018
60619,Chicago,IL,Chicago Smerqs,$$,4.5,3,Caribbean,41.7508826,-87.619275,10.396887078416697,"ANDREW'S RIBS, INC",10/10/2007
60619,Chicago,IL,Cannon's Jerk & Juice Bar,$$,2.5,11,Caribbean,41.758437952635795,-87.6138860732317,21.448036155036597,VERNON FOOD MART INC.,04/18/2016
60619,Chicago,IL,Don's Caribbean Jerk Spot,$$,3.5,3,Caribbean,41.7514365,-87.6012272,0.9001405657325645,MUNCHES,06/10/2003
60619,Chicago,IL,Campbell's Jerk,$$,1.0,7,Caribbean,41.73677,-87.61381,16.694948433941157,A PIECE OF CAKE BAKERY INC.,12/01/2016
60620,Chicago,IL,Jamaica Jerk Villa,$$,3.5,82,Caribbean,41.75042,-87.64308,14.388819137140043,JAMAICA JERK VILLA,08/16/2018
60625,Chicago,IL,Pupuseria Restaurant Cuscatleco,$,4.0,54,Caribbean,41.9683421098996,-87.70707684418029,3.146263315212853,J & J FAST FOOD & BAKERY,11/01/2005
60626,Chicago,IL,Caribbean American Bakery,$,4.0,67,Caribbean,42.01916,-87.6697,12.025087666408325,LITTLE MEL'S HOT DOGS,11/18/2002
60626,Chicago,IL,Redz Belizean Restaurant,$,4.0,39,Caribbean,42.01963,-87.67271,16.40292527837453,BARGAIN PARADISE,08/16/2007
60628,Chicago,IL,Jamaican Gates Restaurant,$$,4.0,28,Caribbean,41.707832,-87.64323399999999,20.800956371054976,DOCTOR C'S CARIBBEAN CUISINE,01/28/2009
60628,Chicago,IL,Park Island Jerk Chicken Inc,$,4.0,16,Caribbean,41.72132,-87.632,26.108779826152933,"PARK ISLAND JERK CHICKEN, INC.",05/10/2017
60628,Chicago,IL,Caribbean Jerk Palace,$$,3.5,2,Caribbean,41.7062651726149,-87.6432217285037,22.323309079184522,CARIBBEAN JERK PALACE III LLC,10/03/2018
60628,Chicago,IL,Heron Valley Jerk Chicken,$$,1.0,1,Caribbean,41.70704,-87.61329,20.16601931589957,3JJJ'S BETTER TASTE JAMAICAN JERK RESTAURANT,05/17/2016
60629,Chicago,IL,Garifuna Flava,$$,4.5,282,Caribbean,41.77949,-87.68693,19.09185761225284,GARIFUNA FLAVA CARIBBEAN RESTAURANT,11/27/2017
60629,Chicago,IL,Ray's Island Grill,$,3.5,8,Caribbean,41.779201,-87.70248559999999,14.298599352577616,J & J CHICKEN AND FISH,01/13/2009
60630,Chicago,IL,Señor Pan Cafe Tapas & Vinos,$$,4.0,136,Caribbean,41.96865,-87.74055,13.29141872699506,LA QUINTA DE LOS REYES,02/11/2013
60637,Chicago,IL,Jamaican Jerk Spice,$,2.5,38,Caribbean,41.776628,-87.606087,9.993350026342739,JAMAICA JERK CHOICE,08/13/2007
60639,Chicago,IL,3-D's Jerk Chicken,$$,4.0,59,Caribbean,41.909246,-87.75893,16.01933642950013,THREE D,01/18/2017
60642,Chicago,IL,Jerk Modern Jamaican Grill,$$,3.5,329,Caribbean,41.8963802,-87.6482277,11.54485741152416,JERK,02/07/2017
60643,Chicago,IL,That Jerk Spot,$,4.0,14,Caribbean,41.6875258192404,-87.6691449433565,488.9848494549353,COFFEE DEPOT,08/11/2004
60643,Chicago,IL,Uncle Joe's Jerk,$$,3.0,38,Caribbean,41.7084888,-87.6555749,6.730843327869252,UNCLE JOE'S JERK CHICKEN & FISH,10/03/2017
60643,Chicago,IL,Island Vibes Jerk Chicken Restaurant,$$,3.0,34,Caribbean,41.7068849,-87.6589387,3.750194603451842,HEAVENLY FLOWER CATERING INC.,09/06/2005
60644,Chicago,IL,Super Chi Chi,$$,3.5,10,Caribbean,41.8799476623535,-87.7614059448242,27.129291726702963,CHE CHE RESTAURANT INC.,03/13/2009
60647,Chicago,IL,Caribella,$$,4.0,55,Caribbean,41.92434,-87.711,25.04874484618663,PENUMBRA RESTAURANT AND WINE BAR,01/10/2018
60649,Chicago,IL,Royal Caribbean Jerk,$,3.0,41,Caribbean,41.7663849,-87.5729533,7.421850195136604,HONEYJACKS DELI,02/26/2004
60649,Chicago,IL,Jr's Jamaica Restaurant,$$,4.0,13,Caribbean,41.7518931908665,-87.57064215838909,36.039256434873174,"KING'S CHINA, INC.",07/19/2007
60649,Chicago,IL,Tropic Island Jerk Chicken,$,3.5,10,Caribbean,41.7517249,-87.5774992,5.903819477491613,FLAME N HOT CONVENIENCE,05/05/2011
60649,Chicago,IL,Jamaican Spot At 63rd,$$,5.0,1,Caribbean,41.7801208,-87.5783691,183.28689967844326,JACKSON PARK GOLF COURSE,03/02/2017
60652,Chicago,IL,Caribbean Jerk Palace,$$,4.0,106,Caribbean,41.7497749,-87.71790990000001,4.76200302641324,CARRIBEAN JERK PALACE,03/17/2015
60657,Chicago,IL,Irie Jerk Bar and Grill,$$,4.0,160,Caribbean,41.943669951902706,-87.65397001057859,12.462686359820982,IRIE BAR & GRILLE,02/24/2017
60657,Chicago,IL,Trader Todd's,$$,3.0,335,Caribbean,41.9404521,-87.6543655,7.857659771672735,TRADER TODD'S RESTAURANT & BAR,01/31/2005
60660,Chicago,IL,Aunty Joy's Jamaican Kitchen,$$,4.5,67,Caribbean,41.998042299999994,-87.6614142,2.983175679034427,THREE PROFESSORS INTERNE CAFE,11/24/2003
60601,Chicago,IL,Wow Bao,$,3.5,543,Chinese,41.8859149826022,-87.6282665232788,6.424544235301241,ETHEL'S CHOCOLATE LOUNGE,02/27/2008
60607,Chicago,IL,Duck Duck Goat,$$$,4.0,1093,Chinese,41.886655761673396,-87.64971708137779,16.558308975677328,DUCK DUCK GOAT,02/22/2018
60607,Chicago,IL,WJ Noodles,$$,4.5,158,Chinese,41.8780711,-87.64772049999999,2.952716377725277,SUSHI LOOP,04/24/2007
60607,Chicago,IL,ML Kitchen,$$,4.0,113,Chinese,41.869543,-87.65578599999999,2.63235052290006,ML KITCHEN INC.,12/15/2016
60608,Chicago,IL,Joy Yee's Noodle Shop,$$,3.5,615,Chinese,41.864330135584204,-87.6467004576721,6.264335469647634,REGGIO'S PIZZA,11/29/2005
60608,Chicago,IL,Potsticker House,$$,3.5,420,Chinese,41.836894,-87.645896,17.291691260371447,DO EAT,10/07/2016
60610,Chicago,IL,Lan's Old Town,$$,3.0,269,Chinese,41.9095306396484,-87.6382293701172,14.852942717860774,HEAT,08/15/2002
60611,Chicago,IL,Wow Bao,$,3.5,581,Chinese,41.8979009401519,-87.6237559318542,24.629934645717768,AMORINO WATER TOWER LLC,11/24/2015
60611,Chicago,IL,Shanghai Terrace,$$$,4.0,291,Chinese,41.89624,-87.62496999999999,42.11452439737583,AMERICAN GIRL PLACE INC,05/09/2005
60611,Chicago,IL,Big Bowl,$$,3.5,749,Chinese,41.892629,-87.6261317,4.958592715551157,CALIFORNIA PIZZA KITCHEN,03/07/2017
60611,Chicago,IL,P.F. Chang's,$$,3.0,425,Chinese,41.8919052750496,-87.6269987225533,22.855969676855413,P.F. CHANG CHINA BISTRO,02/10/2017
60613,Chicago,IL,Young's Chinese Restaurant,$$,3.5,268,Chinese,41.95389,-87.66866999999999,18.28429530279185,YOUNG'S RESTAURANT,05/11/2018
60613,Chicago,IL,Hunan Egg Roll King,$,4.0,114,Chinese,41.9585485,-87.65325820000001,3.1694059111602924,HUNAN EGG ROLL KING,08/27/2002
60614,Chicago,IL,Dee's Mandarin & Sushi Lounge,$$,3.5,247,Chinese,41.9183311462402,-87.6560592651367,19.225933830920887,DEE'S RESTAURANT INC,04/14/2017
60614,Chicago,IL,Mo's Asian Bistro,$$,4.0,148,Chinese,41.9250951,-87.662435,4.50967014508443,7 ELEVEN #33875B,03/08/2018
60614,Chicago,IL,House of Hunan,$,3.0,229,Chinese,41.925893,-87.641125,26.71180796414095,CASATI'S,08/01/2018
60616,Chicago,IL,Chi Cafe,$,4.0,1042,Chinese,41.85351,-87.63448000000001,32.87527012916057,SHUI WAH CHINESE CUISINE,05/18/2012
60616,Chicago,IL,Qing Xiang Yuan Dumplings,$$,4.0,685,Chinese,41.85505,-87.63219000000001,30.510498010331556,BAHAY KUBO,04/09/2013
60616,Chicago,IL,Go 4 Food,$$,4.0,636,Chinese,41.851085,-87.6326203,5.345077408582821,GO 4 FOOD INC.,05/10/2018
60616,Chicago,IL,Little Sheep Mongolian Hot Pot,$$,4.0,321,Chinese,41.8498034592167,-87.6320048336464,12.165613635936742,THE NOODLE VIETNAMESE CUISINE,12/04/2017
60616,Chicago,IL,MCCB Chicago 时尚食谱,$$,4.5,183,Chinese,41.8539,-87.63365,31.920402904550485,PHO HUNG,05/01/2018
60616,Chicago,IL,Han 202,$$,4.0,263,Chinese,41.837927,-87.641755,11.896183628449451,GRAZIANO'S RISTORANTE,08/30/2004
60616,Chicago,IL,Hing Kee Restaurant,$$,3.5,507,Chinese,41.853947999999995,-87.633651,36.38463719924824,7 TREASUES CANTONESE CUISINE,05/22/2003
60616,Chicago,IL,Yummy Yummy Noodles,$,4.0,135,Chinese,41.849921,-87.632384,24.344355211288008,BOBABAR CAFE,06/08/2010
60616,Chicago,IL,Ken Kee Restaurant,$$,3.5,411,Chinese,41.8543853759766,-87.6333236694336,62.59429641786939,KUNGFU TEA,10/03/2016
60616,Chicago,IL,Golden Bull Restaurant,$$,4.0,186,Chinese,41.85324,-87.63346999999999,19.269978515002578,MANDARIN KITCHEN,05/10/2018
60616,Chicago,IL,Emperor's Choice Restaurant,$$,4.0,235,Chinese,41.8517417907715,-87.6322784423828,12.474445202177511,EMPEROR'S CHOICE RESTAURANT,05/11/2018
60616,Chicago,IL,Seven Treasures Cantonese Cuisine,$,3.5,279,Chinese,41.850483000000004,-87.632082,8.511983694449214,SEVEN TREASURES,05/01/2018
60616,Chicago,IL,Xi'an Cuisine,$,4.0,158,Chinese,41.85262,-87.63309,12.016081061190475,ELDO BAKERY,07/21/2004
60616,Chicago,IL,Slurp Slurp,$,3.5,178,Chinese,41.851539939222,-87.6316161453724,18.26251145661723,DING FENG NOODLE,03/24/2016
60617,Chicago,IL,Hua's Open Kitchen,$,3.5,16,Chinese,41.7303799,-87.5506,20.618995207130197,HUA'S CHINESE CHOP SUEY EXPRESS,03/26/2018
60617,Chicago,IL,Chan's Chinese Kitchen,$,3.0,8,Chinese,41.7225949,-87.5770055,7.680487624155192,"PM WINE & SPIRITS, INC.",12/06/2017
60617,Chicago,IL,New Hot Wok,$,2.5,12,Chinese,41.7024902,-87.5351013,14.504319590799604,HOT WOK,07/15/2014
60617,Chicago,IL,New Little China,$,1.5,17,Chinese,41.722396,-87.58136329999999,27.217421198916973,LITTLE CHINA,10/20/2006
60617,Chicago,IL,New Chop Suey,$,2.5,3,Chinese,41.7294425964355,-87.55084228515621,21.4230680780896,NEW CHOP SUEY,06/27/2008
60618,Chicago,IL,Friendship Chinese Restaurant,$$,3.5,777,Chinese,41.9324798583984,-87.7135467529297,16.88657835349018,FRIENDSHIP RESTAURANT,03/14/2017
60618,Chicago,IL,House of Wah Sun,$$,4.0,270,Chinese,41.9601,-87.68253,26.847374021440533,HOUSE OF WAH SUN,10/27/2016
60618,Chicago,IL,Hot Woks Cool Sushi,$$,3.5,173,Chinese,41.94348,-87.67984,19.30980345099849,BRIX CATERING & EVENTS,09/11/2017
60618,Chicago,IL,1Chop Suey,$,4.0,37,Chinese,41.946970484393894,-87.69243979076971,25.73693893842747,7-ELEVEN INC,05/13/2002
60619,Chicago,IL,Kam's Chop Suey,$,4.0,9,Chinese,41.743373999999996,-87.623971,19.860391094250826,KAM CHOP SUEY,10/09/2012
60619,Chicago,IL,New China Express,$,3.0,9,Chinese,41.73684646971989,-87.606216,14.249603570308482,FECETIOUS PRODUCTIONS INC,01/29/2002
60619,Chicago,IL,China Star of Chicago,$,3.5,10,Chinese,41.764959999999995,-87.62442,27.259228925263105,CHAN'S KITCHEN II,09/18/2008
60619,Chicago,IL,See Thru Chinese Kitchen,$,2.5,8,Chinese,41.742470000000004,-87.6046099,34.810665729855366,DOLLAR GENERAL STORE # 19022,10/24/2017
60620,Chicago,IL,Prestige Chinese Food,$$,4.0,5,Chinese,41.749942779541,-87.67530059814449,17.036205933653008,CHILO'S FAST FOOD,07/21/2008
60622,Chicago,IL,MAK Restaurant,$$,4.0,229,Chinese,41.9032611,-87.6759818,6.734828908107239,JINX,11/18/2002
60622,Chicago,IL,Mon Lung,$,3.5,246,Chinese,41.90003239999999,-87.6672824,3.643147110920229,MON LUNG CHOP SUEY,10/19/2016
60622,Chicago,IL,Takie Outit,$,3.5,178,Chinese,41.89611,-87.68086,17.16543046290689,TAKIE OUTIT,10/11/2016
60623,Chicago,IL,China Snack,$,4.0,14,Chinese,41.85156,-87.70139,17.42428161346642,VIDA Y SALUD,05/12/2017
60623,Chicago,IL,Asian Cuisine Express,$$,5.0,8,Chinese,41.836690000000004,-87.72041999999999,19.0101267099419,ASIAN CUISINE EXPRESS,06/20/2018
60625,Chicago,IL,Great Sea Chinese Restaurant,$$,4.0,663,Chinese,41.9687,-87.71065,10.89161594900064,CAFE LIBERTE,12/09/2005
60625,Chicago,IL,Shanghai Inn,$$,4.0,262,Chinese,41.967647,-87.679002,3.572747649492804,SHANGHAI INN,10/26/2004
60625,Chicago,IL,Peking Mandarin,$,4.0,151,Chinese,41.9682451,-87.71512270000001,3.1270392216091016,"YOGURT'S LA MICHOACANA CORP.,",07/21/2014
60625,Chicago,IL,Wok Cuisine,$,3.5,211,Chinese,41.964259999999996,-87.70868,36.14605387005592,SUBWAY STORE #30969,08/02/2017
60625,Chicago,IL,Tom Lee's Chop Suey,$,3.5,117,Chinese,41.9665802,-87.68896490000002,3.758462245035911,LEE'S CHOP SUEY,11/13/2003
60625,Chicago,IL,Rice & Roll,$,3.5,95,Chinese,41.975969899999996,-87.71173,16.448068683190723,DELICIAS CRUCITA,11/13/2007
60626,Chicago,IL,Far East Kitchen,$,3.5,66,Chinese,42.008633,-87.66632800000001,6.831814369008354,"FAR EAST KITCHEN, LLC",10/16/2018
60626,Chicago,IL,Dragon Gate,$,4.0,37,Chinese,42.0007264,-87.67167979999999,1.3341616684218285,DRAGON GATE,10/07/2016
60628,Chicago,IL,China Garden,$,4.5,7,Chinese,41.695471399999995,-87.64271120000001,12.680215087165003,CHINA GARDEN CHINESE RESTAURANT,01/08/2018
60628,Chicago,IL,Tommy's Chinese Restaurant,$,3.5,6,Chinese,41.706959999999995,-87.61901,20.73124943188181,TOMMY'S RESTAURANT,10/06/2017
60628,Chicago,IL,New Tea Garden Chop Suey,$,4.0,4,Chinese,41.6876678466797,-87.6213226318359,17.305431627376297,NEW GUO HUI,07/21/2014
60628,Chicago,IL,South China Kitchen,$,2.5,9,Chinese,41.683040000000005,-87.6418414,14.065458721796972,SOUTH CHINA KITCHEN INC.,09/18/2017
60628,Chicago,IL,Sky Lake Chinese's Kitchen,$,2.5,9,Chinese,41.707424163818395,-87.6237258911133,20.382009777832973,24 - 7 MART,01/19/2010
60629,Chicago,IL,Buffet City,$$,2.5,39,Chinese,41.765412713846295,-87.7228119607132,26.974307864470227,BUFFET CITY,05/01/2018
60629,Chicago,IL,Chinese Number One Kitchen,$,3.5,11,Chinese,41.787413,-87.703191,37.72562647357078,CHINESE #1 KITCHEN,09/11/2017
60630,Chicago,IL,Excelsior Garden,$,3.5,58,Chinese,41.969143200000005,-87.7616777,22.46759257023779,EXCELSIOR GARDEN,12/04/2017
60630,Chicago,IL,Moy Lee Chinese Restaurant,$$,3.5,74,Chinese,41.977709999999995,-87.77006999999999,20.785357841246146,MOY LEE RESTAURANT,11/06/2017
60630,Chicago,IL,Hunan Spring Restaurant,$,3.5,49,Chinese,41.976915399999996,-87.7541697,17.162367664299463,GLEN CONVINIENT,08/01/2002
60630,Chicago,IL,Chinese Kitchen,$,3.5,65,Chinese,41.97685,-87.76971999999999,54.378348497287234,7 ELEVEN #33067H,08/08/2014
60630,Chicago,IL,Mayflower Chinese Restaurant,$,3.5,84,Chinese,41.97654,-87.72838490000001,23.70216139040944,BLOCKBUSTER VIDEO #17336,04/06/2009
60631,Chicago,IL,Chopstick Express,$,3.0,66,Chinese,42.0126343285916,-87.80697226524349,16.57081672785806,CHOP STICK EXPRESS,07/16/2018
60632,Chicago,IL,Chop Suey City,$,4.5,70,Chinese,41.8238,-87.68784000000001,19.551807860790735,CHOP SUEY CITY,09/03/2015
60632,Chicago,IL,New China Tea,$,3.5,49,Chinese,41.793459999999996,-87.72421999999999,17.22368862525387,NEW CHINA TEA,05/09/2017
60632,Chicago,IL,Wing Wah,$,3.5,18,Chinese,41.8147316,-87.7037811,20.31298712469541,WING WAH LAU RESTAURANT,06/21/2017
60632,Chicago,IL,Hong Kong Restaurant,$,3.5,34,Chinese,41.793555100000006,-87.6935926,5.684198058887339,HONG KONG RESTAURANT,06/08/2017
60632,Chicago,IL,China Ho Restaurant,$,3.5,25,Chinese,41.7992353191766,-87.7228308666938,30.500497849852394,AZTEC GRILL,04/29/2005
60633,Chicago,IL,China Garden,$,4.0,14,Chinese,41.65278,-87.54751999999999,18.464776967064893,CHINA GARDEN,11/13/2017
60633,Chicago,IL,Number 1 Chop Suey,$,3.0,6,Chinese,41.6301613,-87.56124109999999,1801.888820496112,WINJAMMER MARINA,10/13/2011
60634,Chicago,IL,Jess Cafe,$,4.0,372,Chinese,41.93825,-87.77216,16.071483573337318,"JESS CAFE     -   Final affidavit, business sold as of 09/30/18.",05/21/2007
60634,Chicago,IL,Li Hing,$,4.0,109,Chinese,41.93878,-87.77103000000001,17.52799183658024,ZASCIANEK,02/26/2004
60634,Chicago,IL,Asian Town Noodle,$,4.0,37,Chinese,41.94534,-87.81576,15.843520428799607,ASIAN TOWN NOODLES,01/12/2017
60634,Chicago,IL,Yummy,$$,3.0,63,Chinese,41.947545,-87.806587,30.638225330264174,FORNO ROSSO,10/13/2017
60634,Chicago,IL,Mr Ging Chop Suey,$,3.5,48,Chinese,41.94554,-87.76639,17.19228585768848,MR GING CHOP SUEY RESTAURANT,12/14/2005
60634,Chicago,IL,China Wok Restaurant,$,4.0,14,Chinese,41.9370727539062,-87.7667922973633,16.59495124086578,GROTA RESTAURANT,10/13/2017
60638,Chicago,IL,Harmony Restaurant,$$,3.5,113,Chinese,41.79221,-87.7852973,10.36346389731418,HARMONY RESTAURANT,03/16/2018
60638,Chicago,IL,1st Chop Suey,$,3.5,42,Chinese,41.79563030121,-87.761728335105,32.293244061405595,Walgreens # 03321,04/24/2018
60638,Chicago,IL,The Original Big 4's Chop Suey,$,3.5,66,Chinese,41.7935563,-87.80134699999999,6.998507303082504,BIG 4'S CHOP SUEY,10/24/2016
60638,Chicago,IL,Wing Wah,$,4.0,23,Chinese,41.777774900000004,-87.7833211,6.8491078119350055,MEI ZI RONG,01/31/2003
60638,Chicago,IL,Panda Express,$$,3.0,32,Chinese,41.774606377268796,-87.74195917898079,10.776767224335762,PANDA EXPRESS RESTAURANT #2685,12/14/2016
60639,Chicago,IL,Tony's Chinese & American Restaurant,$,4.5,79,Chinese,41.922129999999996,-87.78477,18.87544669725667,RAO FAMILY RESTAURANT,05/16/2018
60639,Chicago,IL,Hong Huah,$,4.0,81,Chinese,41.9241333007812,-87.7743301391602,21.710327341455848,HONG HUAH RESTAURANT,03/22/2017
60639,Chicago,IL,China Express,$$,4.0,26,Chinese,41.9188804626465,-87.76805877685551,26.547694226304298,CHINA EXPRESS REST,02/06/2017
60639,Chicago,IL,Kim Long Restaurant,$,3.5,42,Chinese,41.9242791473963,-87.754516956822,14.955036587281334,KIM LONG RESTAURANT,01/09/2017
60640,Chicago,IL,Sun Wah Bar-B-Que,$$,4.0,1464,Chinese,41.97396,-87.65919,66.16734492688684,Eurest Dining Services @ Combined Insurance,03/14/2012
60640,Chicago,IL,Hon Kee Restaurant,$,4.0,211,Chinese,41.973490000000005,-87.65826,13.618029460691263,VINH THO GROCERY,07/11/2005
60640,Chicago,IL,Dong Ky Chinese & Vietnamese Restaurant,$,4.0,166,Chinese,41.97061,-87.65881999999999,66.04705937078703,ROSATI'S PIZZA,08/15/2007
60640,Chicago,IL,Lao Sze Chuan - Uptown,$$,3.5,429,Chinese,41.970021,-87.659915,9.114568874542696,LAO SZE CHUAN UPTOWN,07/24/2017
60640,Chicago,IL,Wing Hoe Restaurant,$$,3.0,293,Chinese,41.979480213292604,-87.6553201675415,34.80329827516204,BREAKER'S PANTRY,04/28/2017
60640,Chicago,IL,Mei Shung,$$,3.5,155,Chinese,41.9822,-87.65956,26.740116590524675,MEI SHUNG CHINESE RESTAUARNAT,06/26/2017
60640,Chicago,IL,Honeymoon Cafe,$,3.5,84,Chinese,41.9733899,-87.6591902,6.264379949284324,SUN WAH BAR-B-Q INC CO,06/24/2009
60640,Chicago,IL,Three Harmony Chinese Restaurant,$,3.5,97,Chinese,41.9650379,-87.6611089,4.385801678476618,MAKOLA AFRICAN SUPERMART # 2,07/15/2009
60641,Chicago,IL,Hot Woks Cool Sushi,$$,3.5,348,Chinese,41.9528312683105,-87.7278366088867,11.04094801873377,JESTER'S WIENERS & PULLED BEEF,08/16/2002
60641,Chicago,IL,Hong Kong House,$,4.0,62,Chinese,41.95175,-87.7473849,3.535480957899689,HONG KONG CHINESE RESTAURANT,09/11/2017
60641,Chicago,IL,China Buffet,$,4.0,72,Chinese,41.936208,-87.726586,31.044857822456684,CHINA BUFFET INC.,01/29/2018
60643,Chicago,IL,Panda Express,$$,4.0,8,Chinese,41.6775490343571,-87.663191780448,9.99748048248303,PANDA EXPRESS #1422,02/08/2018
60643,Chicago,IL,See Thru Chinese Kitchen,$,2.5,15,Chinese,41.694481200000006,-87.6810558,27.74643683566616,"BEVERLY HILLS CANDY, INC.",08/11/2005
60643,Chicago,IL,Oriental Chop Suey,$,3.0,12,Chinese,41.721568,-87.669332,37.371011936189795,J  & J FISH & CHICKEN,02/03/2005
60644,Chicago,IL,Chop Suey Kitchen,$,4.0,10,Chinese,41.8801773,-87.7596763,8.068805034600146,CHOP SUEY KITCHEN,09/08/2016
60645,Chicago,IL,Eng's Asian Cuisine,$,3.5,103,Chinese,42.014516,-87.69131800000001,86.12793156018793,BLOCKBUSTER VIDEO #17229,04/06/2009
60645,Chicago,IL,China Ling,$,3.5,70,Chinese,42.010784010261,-87.68976987724609,24.711296258691927,M & M  FOOD MART,11/14/2007
60646,Chicago,IL,Mee Mah Restaurant,$$,3.5,128,Chinese,41.990407,-87.730254,33.74633874156566,MEE MAH,09/28/2016
60647,Chicago,IL,Fat Rice,$$,4.0,908,Chinese,41.9319451,-87.7017382,31.733321709668928,SON OF A BUTCHER TAVERN,03/14/2018
60647,Chicago,IL,Cheng Chopsticks,$,3.5,129,Chinese,41.917159999999996,-87.704205,53.71347503733109,ARMITAGE SHRIMP HOUSE,11/15/2004
60647,Chicago,IL,China Fast Wok,$,3.5,141,Chinese,41.9181022644043,-87.6976470947266,23.38346462766251,7-ELEVEN 33609,10/05/2017
60647,Chicago,IL,Lee's Chop Suey,$,3.5,164,Chinese,41.93201,-87.68876999999999,17.785576400267203,"R & S DISCOUNT FOOD, WINE, & LIQUOR",11/17/2017
60649,Chicago,IL,House of Bing,$,3.5,40,Chinese,41.7689,-87.56703,30.635812551891927,THE HOUSE OF BING,12/12/2016
60652,Chicago,IL,Fon Fon Chinese Cuisine,$$,4.0,12,Chinese,41.74279,-87.70184,18.438205655581427,FON FON,03/27/2018
60655,Chicago,IL,Jiang's Kitchen,$$,3.5,15,Chinese,41.6918249,-87.6901166,4.178958888919376,JIANG'S KITCHEN INC.,12/07/2016
60656,Chicago,IL,China Kitchen,$,3.5,64,Chinese,41.9761114,-87.8367449,17.19993801299811,WHITE HEN PANTRY #0-6901-6,11/16/2006
60656,Chicago,IL,Fried Rice Express,$,3.5,56,Chinese,41.980964660644496,-87.8050918579102,16.12228761564187,ERNIE'S TAP,09/14/2017
60656,Chicago,IL,China Express,$,3.5,20,Chinese,41.964415,-87.83742600000001,53.77327775073105,CHINA EXPRESS RESTAURANT,09/14/2016
60657,Chicago,IL,Yummy Yummy Asian Cuisine,$,4.0,581,Chinese,41.9351256288396,-87.64406288576158,17.320041581124283,YUMMY YUMMY ASIAN CUISINE,01/09/2017
60657,Chicago,IL,Ping Pong,$$,3.5,591,Chinese,41.9424108,-87.6446454,17.615033400994147,BOUNTIFUL EATERY INC.,07/18/2014
60657,Chicago,IL,Chen's Chinese and Cuisine,$$,3.5,327,Chinese,41.945648799999994,-87.6554725,10.908366471028131,CHEN'S,04/19/2004
60657,Chicago,IL,Little Wok,$$,3.5,173,Chinese,41.93899999999999,-87.64465,23.567366762548158,CHILI MAC'S 5-WAY CHILI,02/15/2007
60657,Chicago,IL,Bamboo Garden,$,3.5,140,Chinese,41.9401499,-87.650616,4.77970646110741,BAMBOO GARDEN RESTAURANT,01/26/2017
60659,Chicago,IL,Hoanh Long,$$,4.0,309,Chinese,41.993727899999996,-87.71335129999999,20.927567758941915,"HOANH LONG RESTAURANT, INC.",04/02/2018
60666,Chicago,IL,Manchu Wok,$,1.5,155,Chinese,41.9750011323497,-87.9001781256866,1885.099045632483,TRAVEL TRADERS #533,02/22/2007
60666,Chicago,IL,Wow Bao,$,2.0,49,Chinese,41.97434570000001,-87.89107759999999,1251.5564682055315,TRAVEL TRADERS #533,02/22/2007
60602,Chicago,IL,Cafecito,$,4.5,467,Cuban,41.8823605,-87.6337765,11.828299017535148,HAIFA CAFE,11/30/2004
60603,Chicago,IL,TriBecca Cubano,$$,2.5,3,Cuban,41.87979,-87.63051,26.58066975372798,Antique Taco Chiquito,07/31/2018
60605,Chicago,IL,Cafecito,$,4.5,1470,Cuban,41.875725,-87.626566,8.918874704848754,CAFE GIOIA,02/09/2006
60609,Chicago,IL,Cafeteria Yesenia,$,4.5,51,Cuban,41.816395,-87.665543,21.644444589107987,CAFETERIA YESENIA,07/31/2015
60613,Chicago,IL,Bayan Ko,$$,4.5,29,Cuban,41.961690000000004,-87.67492,11.961818268283269,BAYAN KO,10/03/2018
60618,Chicago,IL,90 Miles Cuban Café,$,4.0,733,Cuban,41.938056945800795,-87.6858062744141,30.547594277198222,"90 MILES CUBAN CAFE, INC.",11/21/2016
60618,Chicago,IL,Cuba 312,$$,4.5,259,Cuban,41.943481,-87.680633,20.027424509983234,CUBA 312,06/12/2017
60618,Chicago,IL,Kerelys Cuban Cafe & Pizzeria,$,4.0,84,Cuban,41.93464779999999,-87.7168702,29.49368967075308,LOS DOS LEONES,03/13/2018
60630,Chicago,IL,Señor Pan Cafe Tapas & Vinos,$$,4.0,136,Cuban,41.96865,-87.74055,13.29141872699506,LA QUINTA DE LOS REYES,02/11/2013
60639,Chicago,IL,Señor Pan Cafe,$,4.0,460,Cuban,41.924414899999995,-87.74234670000001,2.74056829790381,SENOR PAN CAFE INC.,08/12/2015
60639,Chicago,IL,El Cubanito,$,4.5,291,Cuban,41.927846876332396,-87.72652409970759,19.011786278629565,EL CUBANITO,01/25/2013
60639,Chicago,IL,D'Cuba Restaurant,$$,3.5,109,Cuban,41.9236640930176,-87.76803588867192,20.593870852134287,D' CUBA,01/19/2017
60639,Chicago,IL,Cafeteria Marianao,$,4.0,28,Cuban,41.9167547335194,-87.7471506780101,9.207938690025001,CAFETERIA MARIANAO 2,03/01/2006
60639,Chicago,IL,Señor Pan Café,$,4.5,22,Cuban,41.9313151,-87.75293740000001,5.4915688199782755,ZACATECAS RESTAURANT,01/05/2017
60639,Chicago,IL,Sazon Cubano,$$,4.5,8,Cuban,41.9241849,-87.7620437,5.8622533096391525,CR'S,02/10/2006
60641,Chicago,IL,Bia's Café Marianao,$,4.5,63,Cuban,41.946000000000005,-87.73617,17.074733961162277,BIA'S CAFE,05/16/2017
60642,Chicago,IL,Habana Libre Restaurant,$$,4.0,440,Cuban,41.896264200000005,-87.66401259999999,3.31810505719967,EL MARIEL,04/02/2009
60647,Chicago,IL,90 Miles Cuban Café,$$,4.0,1790,Cuban,41.917686462402294,-87.69180297851558,28.91823806538322,90 MILES CUBAN CAFE,02/09/2018
60647,Chicago,IL,Paladar,$$,4.0,305,Cuban,41.923146200000005,-87.6879753,20.527394838540665,CAFE BOLERO,12/03/2004
60647,Chicago,IL,1492 Cuban Fusion,$,4.5,122,Cuban,41.909976,-87.692779,20.06558951356645,1492 CUBAN FUSION INC,06/15/2018
60647,Chicago,IL,Tropicuba,$,3.5,133,Cuban,41.92261,-87.7024,13.473267847596235,ANDRES FAMILY FOOD #2,10/04/2002
60647,Chicago,IL,Taste of Havana,$$,4.5,39,Cuban,41.927440000000004,-87.70424,16.600677955000712,BOUSTAN,10/01/2013
60654,Chicago,IL,Havana,$$,4.0,719,Cuban,41.88967,-87.6314,15.135868489394571,HAVANA GRILL,01/12/2018
60654,Chicago,IL,Nacional 27,$$$,3.5,838,Cuban,41.894897267379996,-87.63745221979799,25.7188491142894,THE GREEN DOOR TAVERN,01/18/2007
60656,Chicago,IL,Congas,$$,2.5,58,Cuban,41.9801907898559,-87.80328322201972,3.1329044970389663,4PLUS1,11/19/2003
60660,Chicago,IL,La Unica Food Mart,$,4.0,204,Cuban,41.998011511669,-87.6683912,3.641305417654037,"LA UNICA FOOD MART, INC.",08/15/2017
60608,Chicago,IL,Aloha Wagon,$,5.0,97,Filipino,41.865308,-87.685784,33.21678620619918,ALOHA WAGON LLC,10/11/2017
60613,Chicago,IL,Bayan Ko,$$,4.5,29,Filipino,41.961690000000004,-87.67492,11.961818268283269,BAYAN KO,10/03/2018
60618,Chicago,IL,Ruby's Fast Food,$,4.5,221,Filipino,41.961259999999996,-87.72215,14.664796592423286,RUBY'S FAST FOOD,03/08/2005
60618,Chicago,IL,Tipanan Restaurant,$$,1.0,2,Filipino,41.961259999999996,-87.72224,14.715819502144083,ALEX TACOS,03/07/2002
60622,Chicago,IL,Uncle Mike's Place,$$,4.0,589,Filipino,41.89117,-87.66986,23.545832255249294,UNCLE MIKE'S PLACE,10/13/2016
60625,Chicago,IL,Isla Pilipina,$$,4.0,721,Filipino,41.968252500000006,-87.6916001116394,30.081822165642844,AMIHAN RESTAURANT,01/09/2002
60625,Chicago,IL,Merla's Kitchen,$,4.0,102,Filipino,41.975857561789105,-87.71348474865921,6.428226454478653,FOSTER GROCERY & DOLLAR PLUS,09/16/2013
60625,Chicago,IL,SUBO Filipino Kitchen,$$,5.0,23,Filipino,41.967040000000004,-87.71358000000001,9.835827811001874,SUBO,11/27/2018
60625,Chicago,IL,Kapatid Oriental Store,$,4.0,7,Filipino,41.9684849,-87.7175107,2.5583619257454187,ANTOJITOS MAJICOS LA MICHOACANA,05/08/2013
60625,Chicago,IL,Hiromi's Oriental Restaurant,$$,3.5,10,Filipino,41.9680824279785,-87.71871948242192,17.619159049493454,HIROMI'S ORIENTAL RESTAURANT,08/23/2017
60630,Chicago,IL,Kawayan,$$,4.0,87,Filipino,41.96931,-87.760906,75.78534273491077,EXCELSIOR GARDEN,12/04/2017
60630,Chicago,IL,Jollibee,$,3.0,70,Filipino,41.972733464562005,-87.74590159375191,87.63579843441785,BIG KMART #9376,02/14/2003
60630,Chicago,IL,Grill City,$,3.0,30,Filipino,41.9728355407715,-87.7455368041992,119.6630397003771,BIG KMART #9376,02/14/2003
60630,Chicago,IL,Crispy Town,$,2.5,13,Filipino,41.9728355407715,-87.7455368041992,119.6630397003771,BIG KMART #9376,02/14/2003
60630,Chicago,IL,Noodle Street,$,1.5,12,Filipino,41.9728355407715,-87.7455368041992,119.6630397003771,BIG KMART #9376,02/14/2003
60634,Chicago,IL,Oscar's Foods,$,4.5,12,Filipino,41.938140000000004,-87.7798,20.231430346878074,OSCAR'S FOOD INC,11/19/2007
60646,Chicago,IL,Pampanga's Cuisine Filipino,$$$,2.5,20,Filipino,41.99771,-87.76687,19.850897937196123,PAMPANEAS CUISINE FILIPINO RESTAURANT,10/18/2016
60657,Chicago,IL,Kubo Chicago,$$,4.5,78,Filipino,41.94008,-87.66026,17.132447577650744,KUBO,02/27/2004
60659,Chicago,IL,Bacolod Chicken Haus,$$,3.5,92,Filipino,41.9961842,-87.7171328,14.508804572025745,ALCATRAS,09/04/2009
60659,Chicago,IL,Little Quiapo Restaurant,$$,3.0,166,Filipino,41.995677,-87.712272,29.090817794309885,KIRKUK KABAB INC,01/29/2003
60659,Chicago,IL,Simple Delights,$,3.0,29,Filipino,41.995112400000004,-87.71341640000001,55.12284394323969,HONG KONG BUFFET CORPORATION,01/27/2009
60603,Chicago,IL,Cochon Volant Brasserie,$$,4.0,627,French,41.8807911918252,-87.63101432472472,7.120451170186401,CAPRA'S COFFEE,01/18/2002
60605,Chicago,IL,Everest,$$$$,4.0,341,French,41.8756347,-87.63304890122342,39.796737127217085,TUTTO ITALIANO,05/14/2018
60605,Chicago,IL,Taureaux Tavern,$$,4.0,23,French,41.8767953,-87.62804770000001,45.894290899930205,A.H. ENTERTAINERS INC.,07/22/2003
60607,Chicago,IL,Maude's Liquor Bar,$$$,4.0,959,French,41.88466,-87.64908,19.085525441825524,SUSHI WABI,05/06/2010
60607,Chicago,IL,Chez Joel Bistro,$$$,4.5,346,French,41.869209999999995,-87.65507,13.920762176540197,CHEZ JOEL,05/04/2018
60607,Chicago,IL,RM Champagne,$$$,4.0,610,French,41.883583200000004,-87.64872609999999,16.13254918547009,PARLOR PIZZA BAR,05/27/2016
60607,Chicago,IL,Nellcôte,$$$,3.5,846,French,41.8842029218415,-87.64915029618379,12.280420049291521,JAIPUR,04/26/2018
60607,Chicago,IL,La Sardine,$$$,4.0,327,French,41.8833789,-87.6530362,5.251559461421213,"LA SARDINE, INC.",05/10/2018
60610,Chicago,IL,Kiki's Bistro,$$$,4.0,322,French,41.899092359324996,-87.6359399376335,10.60249021857255,KIKI'S BISTRO,02/14/2018
60611,Chicago,IL,Le Colonial,$$$,4.0,1131,French,41.900218963623,-87.6269302368164,15.908455583581171,BACK ROOM,07/24/2003
60611,Chicago,IL,Les Nomades,$$$$,4.5,238,French,41.89367,-87.62172,21.128394500164564,KAMEHACHI OF TOKYO,03/14/2011
60611,Chicago,IL,Bistronomic,$$$,4.0,524,French,41.8979072566376,-87.6272430870994,17.489499597330646,BISTRONOMIC,02/28/2017
60611,Chicago,IL,Fig & Olive - Chicago,$$$,3.5,734,French,41.901044,-87.62553199999999,15.730309248499951,CHATTO OASIS,09/18/2002
60611,Chicago,IL,Cafe des Architectes,$$$,4.0,331,French,41.898720000000004,-87.62728,32.313096893739036,SOFITEL CHICAGO WATER TOWER,05/17/2007
60611,Chicago,IL,Cité,$$$$,3.0,578,French,41.891529999999996,-87.61272,61.25069188895712,CAFFE' OLIVA,05/31/2017
60611,Chicago,IL,Margeaux Brasserie,$$$,4.5,110,French,41.8996979,-87.627619,21.33418178572734,ELYSIAN HOTEL CHICAGO,06/01/2011
60611,Chicago,IL,Le Petit Paris,$$$,3.5,179,French,41.898590000000006,-87.6196,11.107647967269775,STREETERVILLE MARKET,05/10/2005
60611,Chicago,IL,Petit Margeaux,$$,4.5,29,French,41.89971,-87.62774,14.718315094987272,ELYSIAN HOTEL CHICAGO,06/01/2011
60614,Chicago,IL,Mon Ami Gabi,$$$,4.0,676,French,41.924093,-87.636974,32.93849001630243,AMBRIA,05/03/2007
60614,Chicago,IL,Chez Moi,$$,4.0,346,French,41.920093536377,-87.6487808227539,4.821939331654829,CHEZ MOI,04/10/2017
60614,Chicago,IL,Cook Au Vin,$$$$,4.0,188,French,41.922509999999996,-87.67430999999999,25.162881944872648,COOK AU VIN,10/11/2018
60615,Chicago,IL,La Petite Folie,$$$,3.5,79,French,41.7955854864573,-87.58864460660709,39.429071008595585,LA PETITE FOLIE,05/15/2018
60618,Chicago,IL,Le Sud,$$,4.5,55,French,41.94285,-87.68587,19.596880426774746,LE SUD,09/13/2018
60622,Chicago,IL,Café Marie Jeanne,$$,4.0,196,French,41.89942,-87.6964,22.60468465357554,CAFE MARIE-JEANNE,01/12/2018
60625,Chicago,IL,Bistro Campagne,$$$,4.0,648,French,41.96356,-87.68563,17.256219365946176,BISTRO CAMPAGNE,10/17/2017
60631,Chicago,IL,Café Touché,$$,4.0,262,French,42.003458475204795,-87.81701445579529,9.955684068485432,CAFE TOUCHE,08/29/2018
60640,Chicago,IL,Pasteur,$$,4.0,271,French,41.9823035306453,-87.6596975326538,20.8905539123365,MEI SHUNG CHINESE RESTAUARNAT,06/26/2017
60640,Chicago,IL,Chez Simo Bistro,$$,4.0,174,French,41.968894899999995,-87.67880579999999,6.533265605188428,CHEZ SIMO,02/28/2017
60640,Chicago,IL,Edgewater Beach Cafe,$$,4.0,55,French,41.9826938,-87.65515979999999,34.73933902987021,EDGEWATER BEACH CAFE,07/17/2017
60642,Chicago,IL,Bar Biscay,$$$,4.0,71,French,41.896389899999996,-87.66441,18.14259268822586,BAR BISCAY,11/07/2013
60647,Chicago,IL,Le Bouchon,$$$,4.0,502,French,41.917559999999995,-87.67792,16.14903927564069,LE BOUCHON,10/02/2017
60654,Chicago,IL,Troquet River North,$$,4.0,278,French,41.894637599999996,-87.6313526,31.401055902988716,TROQUET RIVER NORTH,04/20/2018
60654,Chicago,IL,Brindille,$$$$,4.0,133,French,41.8918830972695,-87.631331928921,7.629111280654936,BRINDILLE,07/20/2017
60654,Chicago,IL,Marchesa,$$$,4.0,60,French,41.89188,-87.63378,17.04844653309094,CROFTON ON WELLS,02/29/2012
60657,Chicago,IL,La Crêperie,$$,4.0,651,French,41.934059000000005,-87.645708,8.432086937822024,"LA CREPERIE, INC.",02/02/2017
60657,Chicago,IL,Maison Parisienne,$$,4.5,144,French,41.94209,-87.65199,17.2679248608509,ANDALOUS INC,02/26/2004
60661,Chicago,IL,Avec,$$$,4.5,2011,French,41.884290441849,-87.64339794331329,4.062339236429848,AVEC,05/04/2011
60603,Chicago,IL,The Berghoff Restaurant,$$,3.5,962,German,41.8793326,-87.6286679,21.276030923646445,BERGHOFF'S,03/01/2016
60610,Chicago,IL,The Glunz Tavern,$$,4.0,116,German,41.90408,-87.63476999999999,13.582487897154762,RABBIT HOLE,01/28/2016
60614,Chicago,IL,Prost,$$,3.5,368,German,41.928436279296896,-87.6533889770508,13.157642076291964,BANKGKOK INN,05/19/2004
60618,Chicago,IL,Laschet's Inn,$$,4.5,455,German,41.95381,-87.68198000000001,21.962901638921903,LASCHET'S INN,12/15/2016
60618,Chicago,IL,Resi's Bierstube Restaurant,$$,4.0,235,German,41.954304,-87.680193,11.400553097714567,RESI'S BIERSTUBE INC,12/12/2016
60618,Chicago,IL,DMen Tap,$$,4.5,61,German,41.93911,-87.69973,18.835310627929026,DMEN TAP,12/17/2012
60618,Chicago,IL,DönerMen,$,3.5,66,German,41.939167600000005,-87.69973900000001,12.548173209373859,DMEN TAP,12/17/2012
60622,Chicago,IL,Funkenhausen,$$,4.5,83,German,41.89571,-87.67022,24.603574451352614,ANGIE'S RESTAURANT,10/20/2004
60625,Chicago,IL,Himmel's,$$,4.0,140,German,41.968379999999996,-87.68609599999999,18.29745900065254,HIMMEL'S CHICAGO,09/11/2017
60625,Chicago,IL,German American Fest,$$,3.5,24,German,41.9667532678044,-87.68749059999999,18.662630485380213,COLD STONE CREAMERY #1924,01/30/2007
60647,Chicago,IL,The Radler,$$,4.0,361,German,41.92437029379111,-87.6996474284774,13.027074576360398,THE RADLER,07/20/2018
60666,Chicago,IL,Berghoff Cafe O'Hare,$$,3.5,277,German,41.980585999999995,-87.909963,2573.8332066864273,TRAVEL TRADERS #533,02/22/2007
60603,Chicago,IL,Greek Kitchen,$,2.5,48,Greek,41.8803359,-87.6313101,28.823427397987167,ARAMARK at Harris Bank,03/10/2017
60605,Chicago,IL,Pita Heaven Restaurant,$$,3.5,325,Greek,41.8660469055176,-87.6242828369141,3.2198625669676773,CRAVE CAFE & LOUNGE,06/11/2013
60606,Chicago,IL,Greek Kitchen,$,3.0,190,Greek,41.883041,-87.634366,8.625811910016733,MED KITCHEN,01/09/2017
60606,Chicago,IL,Piggie Smalls,$$,4.5,21,Greek,41.88658,-87.63433,20.54631657402528,ALLSTARS ON WELLS,09/17/2010
60607,Chicago,IL,Zeus Restaurant,$,4.0,156,Greek,41.87815,-87.64773000000001,11.18871707320664,SUSHI LOOP,04/24/2007
60607,Chicago,IL,Santorini,$$,3.5,346,Greek,41.879308,-87.64757900000001,12.867934333605369,SANTORINI,03/27/2017
60607,Chicago,IL,Greek Kitchen,$,2.5,53,Greek,41.876637839765394,-87.6340045590032,10.830680971525547,PEPPERS SANDWICH SHOP,04/28/2008
60610,Chicago,IL,Steve's Place,$,3.5,37,Greek,41.896784292331205,-87.63545999946359,9.356279871911923,FARMHOUSE,03/02/2018
60611,Chicago,IL,Greek Kitchen,$,3.0,89,Greek,41.894459000000005,-87.62222,56.42543534374198,SOPRAFFINA/CICCHETTI,11/08/2013
60613,Chicago,IL,Windy City Gyros,$,3.5,201,Greek,41.953508500000005,-87.65000450000001,25.864430941134614,WINDY CITY GYROS,05/18/2018
60613,Chicago,IL,Oakwood 83,$,3.5,49,Greek,41.96127,-87.67854,17.284925364572786,MARMALADE CHICAGO,06/09/2008
60614,Chicago,IL,Athenian Room,$$,4.0,679,Greek,41.9217435,-87.64904659999999,9.69529083237067,ATHENIAN ROOM RESTAURANT,03/01/2017
60614,Chicago,IL,Mellos Carry Out,$,3.0,104,Greek,41.9202581048012,-87.6373386383057,6.44970752161405,MELLOS CARRY OUTS,04/10/2017
60614,Chicago,IL,Avli Taverna,$$,4.5,17,Greek,41.9286,-87.66235999999999,17.359311733421965,AVLI TAVERNA,10/31/2018
60615,Chicago,IL,Antoni 1 Grill & Catering,$,4.5,38,Greek,41.799614899999995,-87.5946571,11.50805427805405,PEPE'S MEXICAN FOOD,06/21/2013
60618,Chicago,IL,Outdoor Grill,$,4.5,109,Greek,41.9405364990234,-87.7256546020508,17.156424311378952,OUTDOOR GRILL,08/23/2018
60618,Chicago,IL,Big Boy Gyros,$,3.5,107,Greek,41.94612,-87.68783,22.105857770897895,BIG BOY GYROS,11/15/2016
60619,Chicago,IL,Best Gyro,$$,2.5,2,Greek,41.74705,-87.60516,26.830046661978812,ASSAFWAY MARKET,06/18/2018
60620,Chicago,IL,King Gyros,$$,5.0,4,Greek,41.7506227,-87.6344222,1.1299999887065237,"GRANNY'S CHICKEN, INC.",11/19/2007
60620,Chicago,IL,Jb Gyros,$,1.0,1,Greek,41.750499600000005,-87.6431334,8.768145645297995,JAMAICA JERK VILLA,08/16/2018
60622,Chicago,IL,Taxim,$$$,4.0,427,Greek,41.9098026,-87.6767066,4.697041870115553,HIGH NOON SALOON,10/11/2016
60622,Chicago,IL,Greek Corner,$,3.5,161,Greek,41.8994436015486,-87.67730466283889,6.703164661038983,GREEK CORNER RESTAURANT CAFE,11/10/2016
60625,Chicago,IL,Barba Yianni Grecian Taverna,$$,3.5,282,Greek,41.968435299999996,-87.688226,5.050622574762111,ARTANGO BAR AND STEAKHOUSE,03/30/2018
60625,Chicago,IL,Hub's Restaurant,$,3.5,206,Greek,41.982040000000005,-87.69386999999999,21.23189012461047,HUB'S GYROS II INC,08/29/2017
60626,Chicago,IL,SP Kebab,$,4.5,359,Greek,42.005643,-87.66095899999999,11.617050617985646,CIAO BELLA CAFE,03/27/2013
60626,Chicago,IL,Barajas Sazon,$,2.5,7,Greek,42.012119299999995,-87.674736,8.475888273072469,"CAMPECHE RESTAURANT, INC",11/16/2005
60629,Chicago,IL,Pegasus on the Fly,$$,2.5,10,Greek,41.788280074012604,-87.7390928822383,188.11100545427453,BEN & JERRY'S MIDWAY,01/30/2006
60630,Chicago,IL,King's Gyros 2,$,3.5,145,Greek,41.975532531738295,-87.76720428466801,16.66526253288174,KINGS GYROS #2,12/17/2013
60630,Chicago,IL,Nick's Gyros,$,3.5,45,Greek,41.97677,-87.78813000000001,12.075080074852307,THE ORIGINAL NICKS GYROS,12/05/2017
60631,Chicago,IL,Nick's Drive-In,$,4.0,88,Greek,42.012170399999995,-87.8067649,9.502892249365754,NICK'S DRIVE INN,08/17/2018
60631,Chicago,IL,Brandy's Gyros,$,3.0,129,Greek,41.9951402015491,-87.8071518136879,27.612906306639584,BRANDY'S RESTAURANT,12/10/2018
60632,Chicago,IL,The Hut,$,4.0,18,Greek,41.8281211853027,-87.6944122314453,20.71563674612194,DONALD'S RED HOTS,08/08/2005
60633,Chicago,IL,Chicago Pita Kitchen,$,4.0,43,Greek,41.65498,-87.55391,16.151869558786384,HEGEWICH DAIRY QUEEN,02/13/2002
60634,Chicago,IL,Central Gyros,$$,4.0,215,Greek,41.9376,-87.76611,17.11556234447117,CENTRAL GYROS CORP,10/13/2017
60634,Chicago,IL,Chicago's Pita Grill,$,4.0,138,Greek,41.93653,-87.76607790000001,26.077198938605527,ROYAL KEBAB,09/15/2009
60634,Chicago,IL,Franksville,$,3.5,84,Greek,41.94499520000001,-87.8071802,6.486425312439257,RADAIOS BROS FRANKSVILLE INC,10/04/2017
60634,Chicago,IL,Mr Zee's,$,3.5,89,Greek,41.9524187,-87.7866982,34.75032738110805,BERBATI FOOD AND LIQUORS,10/30/2017
60634,Chicago,IL,Veranda Inn,$$,3.0,90,Greek,41.953456,-87.769683,25.784535941951034,DOLLAR TREE #06754,05/30/2017
60634,Chicago,IL,Tom & Jerry's,$,3.0,76,Greek,41.959832459763206,-87.7865601174852,34.110148682105155,TOM AND JERRY FAST FOOD,02/14/2017
60639,Chicago,IL,Mr. Gee's,$,4.0,66,Greek,41.9246826171875,-87.7380599975586,24.67721271449662,MR. GEE'S,05/02/2011
60640,Chicago,IL,Andies Restaurant,$$,3.5,490,Greek,41.977587299999996,-87.6681818,3.106301254253706,INGVAR WIKSTROM,08/15/2006
60640,Chicago,IL,It's Greek 2 U Grill,$$,4.0,70,Greek,41.98129,-87.66804,17.19828963095534,IT'S GREEK TO YOU,02/05/2018
60641,Chicago,IL,Bread Basket,$,3.0,107,Greek,41.9387950341512,-87.74539187613578,9.083085680930276,BREAD BASKET,03/27/2018
60642,Chicago,IL,Olive Mediterranean Grill,$,4.0,232,Greek,41.910601159325296,-87.65329856923479,18.686019773306963,COREY'S NYC BAGEL DELI,12/09/2016
60646,Chicago,IL,Papa Chris' Place,$,4.5,101,Greek,42.01169,-87.78335,23.814950756467905,PAPA CHRIS PLACE INC,10/17/2016
60646,Chicago,IL,Backyard Grill,$,3.5,126,Greek,41.997026238705004,-87.7285904809931,15.04570454102125,Backyard Grill,11/14/2016
60646,Chicago,IL,East of Eden Carry-Outs,$,3.5,94,Greek,41.996784999999996,-87.74846490000002,40.26721584274899,EAST OF EDENS,10/04/2016
60646,Chicago,IL,Brandy's Gyros,$$,3.5,46,Greek,41.9867817,-87.77767879999999,18.208017671503754,WHITE HEN PANTRY #0-8901-3,05/20/2002
60647,Chicago,IL,George's Hot Dogs,$,4.0,195,Greek,41.91604,-87.67789,16.416889000415377,GEORGE'S HOT DOGS,11/07/2017
60647,Chicago,IL,Nick's On North,$,4.5,64,Greek,41.909719,-87.710463,26.881563604610204,C & T FAST FOOD & CARRY OUT,08/30/2002
60653,Chicago,IL,Maggie Gyros & Chicken,$$,3.0,4,Greek,41.8092351,-87.6178277,7.706783715025466,SWEET DREAMS GOURMET POPCORN,12/07/2007
60654,Chicago,IL,Olive Mediterranean Grill,$,3.0,29,Greek,41.890774592757204,-87.63160541653629,7.769277892164402,OLIVE MEDITERRANEAN GRILLl,06/17/2016
60655,Chicago,IL,Golden Fish,$$,5.0,1,Greek,41.706721200000004,-87.6497537,6.913343290919954,103RD CITGO INC,04/27/2004
60657,Chicago,IL,Gyro-Mena,$,4.0,232,Greek,41.939659999999996,-87.65183,19.54027181962074,TANGCUPS,04/04/2011
60660,Chicago,IL,Milo's Pita,$,4.0,48,Greek,41.993518,-87.659774,37.85108612427723,AJ'S GRILL,08/20/2002
60661,Chicago,IL,Greek Islands Restaurant,$$,4.0,1694,Greek,41.87896,-87.64763,25.007058613212905,ATHENA RESTAURANT,05/15/2006
60661,Chicago,IL,Athena Greek Restaurant,$$,3.5,646,Greek,41.878640000000004,-87.64761999999999,24.646724701287848,ATHENA RESTAURANT,05/15/2006
60661,Chicago,IL,Mr Greek Gyros,$,3.5,322,Greek,41.878166198730504,-87.6474990844727,8.777650204361683,BEZANTIUM,05/14/2004
60661,Chicago,IL,9 Muses,$$,3.5,131,Greek,41.8777101,-87.64709509999999,4.016503062931151,GRIND HOUSE COFFEE INC.,09/18/2003
60661,Chicago,IL,Spectrum Bar and Grill,$$,3.5,96,Greek,41.878257751464794,-87.64703369140621,10.93457008004371,SPECTRUM SPORTS BAR & GRILL,05/08/2017
60666,Chicago,IL,Skybridge Restaurant & Bar,$$,3.5,80,Greek,41.973654548547,-87.9060655142639,2394.620459289671,TRAVEL TRADERS #533,02/22/2007
60603,Chicago,IL,Poke Bar,$,4.5,15,Hawaiian,41.88146,-87.63259000000001,24.89398911882132,BENJYEHUDA,12/06/2016
60605,Chicago,IL,Poke Burrito,$,4.5,50,Hawaiian,41.876298999999996,-87.6290489,5.897008873908037,POKE BURRITO,05/10/2018
60608,Chicago,IL,Aloha Wagon,$,5.0,97,Hawaiian,41.865308,-87.685784,33.21678620619918,ALOHA WAGON LLC,10/11/2017
60610,Chicago,IL,Aloha Poke,$$,4.0,29,Hawaiian,41.9110151,-87.63405,12.627928663516917,ALOHA POKE,04/20/2018
60611,Chicago,IL,Island Party Hut,$$,3.5,89,Hawaiian,41.8880460476892,-87.6185882930542,103.93038795294028,PALM RESTAURANT,10/26/2004
60614,Chicago,IL,Aloha Eats,$,4.0,896,Hawaiian,41.9287526,-87.6425448,2.8499416932343546,QUIZNO'S CLASSIC SUBS,06/21/2005
60614,Chicago,IL,Sublime Sushi,$$,3.0,21,Hawaiian,41.9226200905846,-87.6450405334532,22.253171098483183,LINCOLN MINI MART,08/20/2003
60618,Chicago,IL,Poke Burrito,$$,4.5,81,Hawaiian,41.959773999999996,-87.682362,14.02057115516506,POCKETS,11/08/2016
60657,Chicago,IL,Aloha Poke,$$,4.0,253,Hawaiian,41.9398699921574,-87.6510490633663,5.374266485671068,LA TACOREA INC.,11/25/2011
60661,Chicago,IL,Aloha Poke,$$,4.0,346,Hawaiian,41.884076799999995,-87.6408517,25.414254197184494,B.I. TEA & DIM SUM,09/26/2018
60605,Chicago,IL,Nepal House Indian & Nepalese,$$,4.0,456,Himalayan/Nepalese,41.865652399999995,-87.623901,5.343330711225706,AMERITALIA,08/01/2014
60605,Chicago,IL,Chicago Curry House,$$,3.5,597,Himalayan/Nepalese,41.87086,-87.62846,31.893886295011995,CHICAGO CURRY HOUSE,09/09/2016
60605,Chicago,IL,Himalayan Restaurant,$$,4.0,155,Himalayan/Nepalese,41.874164,-87.62610490000002,7.154226226688938,BULLCHICKS,07/20/2012
60622,Chicago,IL,Cumin,$$,4.0,869,Himalayan/Nepalese,41.9074789,-87.6732148,9.01748444618694,CUMIN RESTAURANT,10/06/2014
60646,Chicago,IL,Himshikar,$$,4.0,182,Himalayan/Nepalese,41.99094,-87.74794,24.114476364521874,CONUTRY OF CHINA,12/06/2002
60647,Chicago,IL,Chiya Chai Cafe,$$,4.5,287,Himalayan/Nepalese,41.9314223820557,-87.7114093648563,5.793441172299432,"EL MERCADO BARATO, INC.",10/28/2011
60659,Chicago,IL,Nepal House,$$,4.0,99,Himalayan/Nepalese,41.997519399999995,-87.6949478,10.59108582931029,CHETTI NADU PALACE,10/30/2013
60605,Chicago,IL,Nepal House Indian & Nepalese,$$,4.0,456,Indian,41.865652399999995,-87.623901,5.343330711225706,AMERITALIA,08/01/2014
60605,Chicago,IL,Chicago Curry House,$$,3.5,597,Indian,41.87086,-87.62846,31.893886295011995,CHICAGO CURRY HOUSE,09/09/2016
60605,Chicago,IL,Himalayan Restaurant,$$,4.0,155,Indian,41.874164,-87.62610490000002,7.154226226688938,BULLCHICKS,07/20/2012
60606,Chicago,IL,Bombay Wraps,$,4.0,408,Indian,41.8839797555164,-87.6341509183647,12.210899824309603,SILVER PALACE,05/14/2004
60606,Chicago,IL,Naansense,$,4.0,429,Indian,41.8852573615387,-87.6336954232788,6.17290052358,7 ELEVEN #36881A,10/03/2017
60606,Chicago,IL,Baba's Village,$,3.5,155,Indian,41.877241999999995,-87.640456,69.02061646698039,BAKERY GARDEN CAFE,05/01/2012
60607,Chicago,IL,Curry on Fire,$$,4.0,73,Indian,41.86972,-87.65239,14.071761611066172,CURRY ON FIRE,06/08/2017
60607,Chicago,IL,Taj Mahal,$$,3.0,268,Indian,41.869518,-87.664709,13.23038222454148,TAJ MAHAL,08/21/2017
60608,Chicago,IL,Ghareeb Nawaz Express,$,3.0,236,Indian,41.8669,-87.64733000000001,17.033443404212825,GHAREEB NAWAZ EXPRESS,12/11/2017
60611,Chicago,IL,The Indian Garden,$$,3.5,698,Indian,41.8932472,-87.62090429999999,14.63697879491084,Michel Sendra French Bakery Cafe,10/30/2002
60611,Chicago,IL,Bombay Wraps,$,4.0,262,Indian,41.89273370000001,-87.619067,3.4999878074754274,BOMBAY WRAPS,08/31/2018
60611,Chicago,IL,Gaylord Fine Indian Cuisine,$$,3.5,414,Indian,41.900337,-87.62527,27.708924842676467,4 TASTE OFF RUSH,05/15/2006
60612,Chicago,IL,Kaathis,$$,4.0,41,Indian,41.88779,-87.68207,43.56615871428124,"ANITA CE'S "" I NEED A CAKE"" INC.",01/23/2013
60613,Chicago,IL,Curry Point,$$,3.5,207,Indian,41.953183100000004,-87.65436509999999,2.88415188222558,"BURGER HUB, INC.",05/24/2016
60613,Chicago,IL,Indian Clay Pot,$$,4.5,99,Indian,41.9543349,-87.6744228,3.9622272386954145,ANNA'S ASIAN GRILL & SUSHI BAR,08/05/2015
60614,Chicago,IL,Tandoor Char House,$$,4.0,723,Indian,41.930639899999996,-87.64928,19.24337840853021,FATTOUSH,04/20/2007
60614,Chicago,IL,Mild 2 Spicy,$$,4.5,183,Indian,41.9328649,-87.64739,11.9367352542145,BARRIO URBAN TAQUERIA,11/02/2009
60614,Chicago,IL,Hakka Bakka Indian Kati Rolls,$,4.0,244,Indian,41.9250951,-87.66027700000001,12.65969609785096,Hakka Bakka,09/25/2015
60614,Chicago,IL,Raj Darbar,$$,3.5,350,Indian,41.9309,-87.6493,16.81080874330902,FOUR STAR LOUNGE,04/14/2017
60615,Chicago,IL,Rajun Cajun,$,3.5,347,Indian,41.79923,-87.58935,24.75591336654951,RAJUN CAJUN,05/11/2018
60616,Chicago,IL,Chef Luciano,$$,4.0,188,Indian,41.8526205,-87.6250488,27.473420861416123,CHEF LUCIANO,05/04/2018
60622,Chicago,IL,Cumin,$$,4.0,869,Indian,41.9074789,-87.6732148,9.01748444618694,CUMIN RESTAURANT,10/06/2014
60622,Chicago,IL,Pub Royale,$$,4.0,360,Indian,41.90286,-87.67916,20.81731484534821,PUB ROYALE,09/28/2016
60625,Chicago,IL,Paprika,$$,3.5,260,Indian,41.968315124511705,-87.6932220458984,16.872403095722913,AZUR MEAT MARKET,09/07/2017
60625,Chicago,IL,Essence of India,$$,3.5,342,Indian,41.96517,-87.6859,17.996915142544488,BRIOSO,12/19/2006
60625,Chicago,IL,Indo-Pak Grill,$,4.5,51,Indian,41.9683849,-87.7264277,6.4981079838152995,INDO-PAK GRILL,08/23/2017
60626,Chicago,IL,Luzzat,$$,4.0,221,Indian,42.0158901,-87.6686027,17.838076272896526,LUZZAT RESTAURANT INC.,01/24/2017
60637,Chicago,IL,Hutchinson Commons,$$,3.0,4,Indian,41.7911835,-87.5982285,2.1916870708829888,AFC SUSHI@UNIVERSITY OF CHICAGO,02/11/2013
60637,Chicago,IL,Curried Food Truck,$$,5.0,1,Indian,41.789878845214794,-87.6012420654297,25.312500932395988,UNIVERSITY OF CHICAGO BOOKSTORE #491,04/06/2017
60640,Chicago,IL,Shan Restaurant,$,4.0,235,Indian,41.9750372,-87.65511490000002,9.113460838686585,SHAN FOOD,06/07/2017
60645,Chicago,IL,JK Kabab House,$$,4.5,149,Indian,41.9979372,-87.6948849,4.8439960307811445,ALI'S GROCERIES AND MEAT INC.,10/08/2009
60645,Chicago,IL,Oberois Indian Food - North Bell,$,4.0,42,Indian,41.998042100000006,-87.68604520000001,3.979488421392675,ABUELOS TACOS,01/02/2014
60646,Chicago,IL,Himshikar,$$,4.0,182,Indian,41.99094,-87.74794,24.114476364521874,CONUTRY OF CHINA,12/06/2002
60647,Chicago,IL,Chiya Chai Cafe,$$,4.5,287,Indian,41.9314223820557,-87.7114093648563,5.793441172299432,"EL MERCADO BARATO, INC.",10/28/2011
60647,Chicago,IL,Rangoli,$$,4.0,590,Indian,41.910198,-87.68809,2.9305897584113034,JULIE'S COFFEE HOUSE,11/16/2009
60647,Chicago,IL,The Spice Room,$$,4.0,211,Indian,41.917770000000004,-87.69972,22.411073926870145,CAFE PANCHO,05/16/2016
60654,Chicago,IL,India House Restaurant,$$,3.5,1284,Indian,41.891485100000004,-87.63018259999998,14.03542645446734,INDIA HOUSE,02/14/2018
60654,Chicago,IL,Vermilion,$$$,3.0,658,Indian,41.8901732672856,-87.6284838567184,5.196631011212577,HENRY'S SWING CLUB,06/14/2017
60657,Chicago,IL,Khyber Pass,$$,4.0,124,Indian,41.93826,-87.64896,10.070832146105372,AMZI,01/10/2013
60657,Chicago,IL,Royal Indian Grill,$$,3.5,109,Indian,41.940781,-87.6507869,27.7194583385919,EL AUTHENTICO 5 DE MAYO,02/19/2013
60659,Chicago,IL,Ghareeb Nawaz,$,4.0,739,Indian,41.997979,-87.681612,1.903548408001842,G & N PIZZA,03/21/2002
60659,Chicago,IL,Uru Swati,$,3.5,531,Indian,41.99736,-87.69573000000001,19.891567226117772,RAJBHOG SWEETS & FOODS,03/10/2003
60659,Chicago,IL,Bundoo Khan -Chicago,$$,4.0,199,Indian,41.9975505,-87.6939106,9.39135635446229,UDUPI PALACE RESTAURANT,01/17/2017
60659,Chicago,IL,Anmol Barbecue Restaurant,$$,4.0,234,Indian,41.99779,-87.70191,17.8875583881411,LEVINSONS INC,02/10/2017
60659,Chicago,IL,Karahi Corner,$$,4.0,179,Indian,41.99787,-87.6969,18.326604180944994,FRESH ZABIHA HALAL SUPER MARKET,08/11/2017
60659,Chicago,IL,Udupi Palace Restaurant,$$,3.5,350,Indian,41.99739,-87.69398000000001,18.14448641151577,UDUPI PALACE RESTAURANT,01/17/2017
60659,Chicago,IL,Nepal House,$$,4.0,99,Indian,41.997519399999995,-87.6949478,10.59108582931029,CHETTI NADU PALACE,10/30/2013
60659,Chicago,IL,Tiffin,$$,3.5,335,Indian,41.997766399999996,-87.6938693,7.713932387394317,TIFFIN,01/19/2017
60659,Chicago,IL,Annapurna,$,3.5,180,Indian,41.997898101806605,-87.69515991210942,16.642730281018014,ANNA PURANA FAST FOOD,01/19/2017
60659,Chicago,IL,Hema's Kitchen,$$,3.0,423,Indian,41.997440000000005,-87.69154,19.944679141876748,LASANI ZABIHA MEAT & GROCERY,03/30/2017
60659,Chicago,IL,Khan BBQ,$$,3.5,219,Indian,41.997474670410206,-87.6902923583984,21.77758029559514,ZAM ZAM GROCERS,06/10/2005
60659,Chicago,IL,Mysore Woodlands,$$,3.5,276,Indian,41.99792,-87.69432990000001,17.591746427601095,MYSORE WOODLANDS,02/10/2017
60659,Chicago,IL,Arya Bhavan,$$,3.5,215,Indian,41.9979362487793,-87.6928024291992,16.471681850001907,BISMILLAH RETAURANT,08/22/2017
60659,Chicago,IL,Tahoora Sweets & Bakery,$,3.5,216,Indian,41.997474670410206,-87.6892547607422,17.446559626224683,TAHOORA SWEETS & BAKERY,02/05/2013
60659,Chicago,IL,King Sweets,$,3.5,77,Indian,41.998000000000005,-87.6879,14.564316285567413,KING SWEETS,02/01/2017
60659,Chicago,IL,Hyderabad House,$,3.5,99,Indian,41.99754,-87.68594,17.421687112373156,HYDEDRABAD HOUSE,01/19/2017
60660,Chicago,IL,Mango Pickle,$$,4.0,140,Indian,41.9883,-87.66062,21.70697740795861,RAS DASHEN ETHIOPIAN RESTAURANT INC,08/14/2017
60660,Chicago,IL,The Little India,$$,3.5,249,Indian,41.9834136962891,-87.65845489501949,14.476967429240737,FRANKO'S PIZZA EXPRESS,08/30/2005
60661,Chicago,IL,Naansense,$,4.0,93,Indian,41.8802641,-87.6409205,14.597241176880308,NAANSENSE,10/11/2017
60661,Chicago,IL,Klay Oven Kitchen,$,3.5,42,Indian,41.884068400000004,-87.6412297,16.07555663332259,B.I. TEA & DIM SUM,09/26/2018
60686,Chicago,IL,Flaming Wok 'n Grill,$,3.5,123,Indian,41.8988305,-87.6476882,25.559378714017022,HAMBURGUESAS Y BURRITOS TAYAHU,12/05/2002
60601,Chicago,IL,Giordano's,$$,3.5,2194,Italian,41.885165,-87.62375300000001,49.931104664315804,STAN'S DONUTS AND COFFEE,12/22/2017
60602,Chicago,IL,Trattoria No. 10,$$$,4.0,555,Italian,41.88242721557621,-87.62969970703121,26.33857042396572,SOPRAFFINA,02/20/2018
60603,Chicago,IL,Pizano's Pizza,$$,3.5,1293,Italian,41.881970838666795,-87.6255734244467,1.3788282895980295,DIP AND POP CHICAGO,06/21/2007
60603,Chicago,IL,Acanto,$$$,4.0,304,Italian,41.881323483913995,-87.6245379144271,21.495401382963543,THE GAGE,03/23/2018
60603,Chicago,IL,The Italian Village Restaurants,$$,3.5,882,Italian,41.880595,-87.63015899999999,20.889541781553497,"SUNSHINE INFINITY, INC.",08/03/2017
60605,Chicago,IL,Lou Malnati's Pizzeria,$$,4.0,2188,Italian,41.871487,-87.6273372,2.694526316056885,JIMMY GREEN'S,01/05/2017
60605,Chicago,IL,Sofi Restaurant,$$,4.0,319,Italian,41.8738179,-87.6292004,51.36501544363107,SOFI LLC,07/10/2017
60606,Chicago,IL,Giordano's - Jackson,$$,3.5,1014,Italian,41.8779751,-87.6344499,3.1598532839579487,GIORDANO'S RESTAURANT & PIZZAERIA,09/15/2008
60607,Chicago,IL,Davanti Enoteca,$$,4.0,1156,Italian,41.86911,-87.66147,15.439409251469282,DAVANTI ENOTECCA,05/08/2018
60607,Chicago,IL,Bar Siena,$$,4.0,1141,Italian,41.8845841437224,-87.6489488181068,10.360781041921609,NOSH AND BOOZE,05/16/2002
60607,Chicago,IL,Monteverde,$$$,4.5,647,Italian,41.88191,-87.65302,13.703651618303118,MONTEVERDE,09/07/2017
60607,Chicago,IL,Viaggio Ristorante & Lounge,$$,4.5,658,Italian,41.88179,-87.6609,14.347136719745272,LEXI'S,09/13/2002
60607,Chicago,IL,Francesca's on Taylor,$$,4.0,456,Italian,41.869426000000004,-87.6617842,6.944098984001736,FRANCESCA'S ON TAYLOR,05/08/2018
60607,Chicago,IL,The Rosebud,$$,4.0,588,Italian,41.869524,-87.664293,15.04658647410745,ROSEBUD CAFE,04/30/2018
60607,Chicago,IL,Tuscany - Taylor,$$,4.0,411,Italian,41.869577,-87.651847,11.40806919601687,TUSCANY RESTAURANT,05/11/2004
60607,Chicago,IL,Conte Di Savoia,$,4.5,216,Italian,41.869411,-87.6632462,5.004650246846232,CONTE DI SAVOIA INC,05/02/2018
60607,Chicago,IL,Nellcôte,$$$,3.5,846,Italian,41.8842029218415,-87.64915029618379,12.280420049291521,JAIPUR,04/26/2018
60607,Chicago,IL,Formento's,$$$,4.0,416,Italian,41.88404,-87.65080999999999,22.75636123341965,HEBRON KEBOBS,05/05/2011
60607,Chicago,IL,Tufano's Vernon Park  Tap,$$,4.0,397,Italian,41.87279,-87.654,12.996379082059844,VERNON PARK TAP,05/10/2018
60608,Chicago,IL,Ignotz Ristorante,$$,4.5,264,Italian,41.8478012084961,-87.68276977539058,13.328421013233612,IGNOTZ' RISTORANTE,12/18/2017
60608,Chicago,IL,Il Vicinato Ristorante,$$,4.5,132,Italian,41.8473701477051,-87.6851654052734,16.529288624238145,IL VICINATO INC,12/07/2017
60608,Chicago,IL,Bacchanalia Ristorante,$$,4.0,179,Italian,41.848,-87.68276,15.505505502415668,BACCHANALIA REST & LNG,02/26/2018
60610,Chicago,IL,Lou Malnati's Pizzeria,$$,4.0,1309,Italian,41.90259525277,-87.62867052090151,17.4112975257405,BARNES & NOBLE BOOKSELLERS#2922,05/03/2018
60610,Chicago,IL,Topo Gigio Ristorante,$$,4.0,811,Italian,41.9096594975818,-87.63484159128609,3.5953202085959766,TOPO GIGIO RISTORANTE,01/09/2018
60610,Chicago,IL,La Scarola,$$,4.0,1064,Italian,41.891073115681294,-87.64688477849131,3.1225651670651846,LA SCAROLA,02/14/2003
60610,Chicago,IL,Eduardo's Enoteca,$$,4.0,338,Italian,41.90439,-87.63043,24.21726882501011,EDWARDO'S PIZZA,06/13/2018
60610,Chicago,IL,Pizano's Pizza,$$,3.5,751,Italian,41.89863,-87.62844,4.135273849533486,"H&F FOOD MART, INC.",03/18/2003
60611,Chicago,IL,Eataly,$$,4.0,3225,Italian,41.892335432963,-87.62626079451479,14.418639292504373,EATALY,12/07/2017
60611,Chicago,IL,Volare Ristorante Italiano,$$,4.0,1767,Italian,41.8915901798304,-87.6225186472213,9.488447571288216,C N D GYROS & LOUNGE INC,03/17/2009
60611,Chicago,IL,Gino's East - Magnificent Mile,$$,3.5,2115,Italian,41.896029999999996,-87.62307,18.790370638660786,AFFINIA CHICAGO,04/17/2006
60611,Chicago,IL,Giordano's,$$,3.5,2423,Italian,41.8958755,-87.62564300000001,11.796043901000996,GIORDANO'S ON RUSH,11/08/2016
60611,Chicago,IL,DiSotto Enoteca,$$,4.5,225,Italian,41.898709999999994,-87.62142,35.74657382123573,CHALF INS DELICATESSEN,08/22/2002
60611,Chicago,IL,Rosebud Steakhouse,$$$,4.0,356,Italian,41.900099299999994,-87.62205429999999,9.520689686089515,Rosebud Steakhouse,03/07/2017
60611,Chicago,IL,Spiaggia,$$$$,4.0,517,Italian,41.900622,-87.624411,23.028191524711584,MAGNIFICENT MILE NEWSTAND INC,03/05/2009
60611,Chicago,IL,Nico Osteria,$$$,4.0,696,Italian,41.9013688470215,-87.6276382123032,14.518471015174297,THE BELLEVUE ROOM,02/26/2009
60611,Chicago,IL,Bongiorno's Italian Deli & Pizzeria,$,4.0,541,Italian,41.8897666931152,-87.6260147094727,52.964031751639084,BEACON TAVERN,05/15/2018
60611,Chicago,IL,Pizzeria Uno,$$,3.5,1272,Italian,41.89227,-87.62692,13.173580489154311,FLEMING'S PRIME STEAKHOUSE & WINEBAR,02/17/2017
60611,Chicago,IL,Rosebud on Rush,$$,4.0,786,Italian,41.895633000000004,-87.62571,16.63458371191936,GIORDANO'S ON RUSH,11/08/2016
60611,Chicago,IL,Francesca's On Chestnut,$$,4.0,341,Italian,41.8985615,-87.6213982,30.47330629240674,SERVICE ENTERANCE  DELI & CATERING,05/13/2005
60612,Chicago,IL,Original Ferrara Bakery,$,4.0,169,Italian,41.86923,-87.68158000000001,24.96715549671149,ORIGINAL FERRARA INC,11/19/2018
60613,Chicago,IL,PR Italian Bistro,$$,4.0,648,Italian,41.953,-87.65477,10.485402378676799,BELANY RESTAURANT,08/13/2002
60613,Chicago,IL,Zia's Lago Vista,$$,4.0,440,Italian,41.9513,-87.66847,30.26319550823047,CENTRO,07/16/2010
60613,Chicago,IL,Panino's,$$,4.0,379,Italian,41.949337,-87.649211,29.458158875634023,EARTH'S KITCHEN,06/14/2018
60613,Chicago,IL,Big G's Pizza,$,4.0,262,Italian,41.9495328,-87.65840940000001,10.81172001500485,BIG G'S PIZZA,05/30/2018
60614,Chicago,IL,Sapori Trattoria,$$,4.5,1961,Italian,41.93166,-87.64859,19.775341378856393,MAYAN PALACE,04/14/2017
60614,Chicago,IL,Chicago Pizza And Oven Grinder Company,$$,4.0,2259,Italian,41.920840000000005,-87.63721,17.78529413322567,RICCARDO TRATTORIA TOSCANA,04/03/2017
60614,Chicago,IL,Pasta Palazzo,$$,4.0,551,Italian,41.917915344238295,-87.6488494873047,18.357288743988054,PASTA PALAZZO,03/10/2017
60614,Chicago,IL,The Pasta Bowl,$$,4.0,826,Italian,41.92638,-87.641448,24.482076889699865,THE PASTA BOWL COMPANY,03/09/2017
